[{"id":"10000","name":"Albany Hwy After Armadale Rd","lat":-32.1479141805,"lon":116.020204025},{"id":"10001","name":"Albany Hwy After Frys L","lat":-32.1449538888889,"lon":116.018315},{"id":"10002","name":"Albany Hwy After Clarence Rd","lat":-32.1420584628,"lon":116.017220501},{"id":"10003","name":"Albany Hwy After Rogers L","lat":-32.1391138888889,"lon":116.017382222222},{"id":"10004","name":"Albany Hwy After Galliers Av","lat":-32.1364944444445,"lon":116.017608888889},{"id":"10005","name":"Albany Hwy Armadale Kelmscott Hospital","lat":-32.1335845144,"lon":116.017766077},{"id":"10006","name":"Albany Hwy After Lilian Av","lat":-32.1301337202,"lon":116.018116552},{"id":"10007","name":"Albany Hwy After Valentine Rd","lat":-32.1277783333333,"lon":116.018321111111},{"id":"10008","name":"Albany Hwy After Foster Rd","lat":-32.12358167,"lon":116.017887331},{"id":"10009","name":"Albany Hwy After Church St","lat":-32.1190221387,"lon":116.017001951},{"id":"10010","name":"Albany Hwy After Davis Rd","lat":-32.1166061111111,"lon":116.015872222222},{"id":"10011","name":"Albany Hwy Kelmscott Stargate Shopping Ctr","lat":-32.113325,"lon":116.014082222222},{"id":"10012","name":"Albany Hwy After Page Rd","lat":-32.1100743905,"lon":116.01284248},{"id":"10013","name":"Albany Hwy After Turner Pl","lat":-32.1082388888889,"lon":116.012628333333},{"id":"10015","name":"Albany Hwy After Centre Rd","lat":-32.1022688888889,"lon":116.012041666667},{"id":"10016","name":"Albany Hwy Before Lake Rd","lat":-32.0986772222223,"lon":116.012625},{"id":"10017","name":"Albany Hwy After Lake Rd","lat":-32.0952972222222,"lon":116.013173333333},{"id":"10019","name":"Albany Hwy After Tonkin Hwy","lat":-32.0864933333334,"lon":116.011679444444},{"id":"10020","name":"Albany Hwy After Manning Av","lat":-32.0848327777778,"lon":116.011334444444},{"id":"10021","name":"Albany Hwy After Ferres Dr","lat":-32.0808666666667,"lon":116.010276666667},{"id":"10022","name":"Albany Hwy Before Verna St","lat":-32.07834,"lon":116.008545555556},{"id":"10023","name":"Albany Hwy Before Clara St","lat":-32.0762403319,"lon":116.006815934},{"id":"10024","name":"Albany Hwy After Gerald St","lat":-32.0736627777778,"lon":116.004297777778},{"id":"10025","name":"Albany Hwy After Dorothy St","lat":-32.071495,"lon":116.001641666667},{"id":"10026","name":"Albany Hwy After Main St","lat":-32.0694261356,"lon":115.999529308},{"id":"10027","name":"Albany Hwy After Gosnells Rd","lat":-32.0621955555555,"lon":115.997727777778},{"id":"10028","name":"Albany Hwy Before Pitchford Av","lat":-32.061039851,"lon":115.996433588},{"id":"10029","name":"Albany Hwy After Helm St","lat":-32.0586535341,"lon":115.993452545},{"id":"10030","name":"Albany Hwy Before The Crescent","lat":-32.0574724227,"lon":115.991778604},{"id":"10031","name":"Albany Hwy After River Av","lat":-32.0554798902,"lon":115.989085117},{"id":"10032","name":"Albany Hwy Before Dalziell St","lat":-32.0539647693,"lon":115.987306785},{"id":"10034","name":"Albany Hwy Before Olga Rd","lat":-32.0514861111111,"lon":115.98446},{"id":"10035","name":"Albany Hwy After Herbert St","lat":-32.0491583333333,"lon":115.978948333333},{"id":"10036","name":"Albany Hwy After Kenwick Link","lat":-32.0457983333333,"lon":115.974556111111},{"id":"10037","name":"Albany Hwy After Ozich Ct","lat":-32.0440555555555,"lon":115.973452222222},{"id":"10038","name":"Albany Hwy Before Liddelow St","lat":-32.0419138888889,"lon":115.971990555556},{"id":"10039","name":"Albany Hwy After Cooper Av","lat":-32.0391109663,"lon":115.970124271},{"id":"10040","name":"Albany Hwy After Royal St","lat":-32.0360422222223,"lon":115.967974444444},{"id":"10041","name":"Albany Hwy After Roe Hwy","lat":-32.0318238888889,"lon":115.963947222222},{"id":"10042","name":"Albany Hwy After Harris St","lat":-32.0287478286,"lon":115.958042767},{"id":"10043","name":"Albany Hwy After Beckenham St","lat":-32.0282033333334,"lon":115.954026666667},{"id":"10044","name":"Albany Hwy After Clapham St","lat":-32.0278573124,"lon":115.951652844},{"id":"10045","name":"Albany Hwy Before Highbury Cr","lat":-32.0273583333333,"lon":115.947556111111},{"id":"10047","name":"Albany Hwy After Nicholson Rd","lat":-32.0263983333333,"lon":115.943244444444},{"id":"10048","name":"Albany Hwy Before River Rd","lat":-32.0252588888889,"lon":115.941533333333},{"id":"10049","name":"Albany Hwy After Liege St","lat":-32.0221095582,"lon":115.938125115},{"id":"10050","name":"Albany Hwy - Carousel Shopping Ctr","lat":-32.0192146875,"lon":115.935569997},{"id":"10051","name":"Albany Hwy After Mason St","lat":-32.0171981765,"lon":115.932985748},{"id":"10052","name":"Albany Hwy After Wharf St","lat":-32.0161688888889,"lon":115.930303333333},{"id":"10053","name":"Albany Hwy After Manning Rd","lat":-32.012484439,"lon":115.927008372},{"id":"10054","name":"Albany Hwy After Hamilton St","lat":-32.0106506772,"lon":115.92567845},{"id":"10055","name":"Albany Hwy After Burton St","lat":-32.0087755555555,"lon":115.924328888889},{"id":"10056","name":"Albany Hwy After Leach Hwy","lat":-32.0065959796,"lon":115.922918427},{"id":"10057","name":"Albany Hwy After Bedford St","lat":-32.0037066666667,"lon":115.920489444444},{"id":"10058","name":"Albany Hwy After Coolgardie St","lat":-32.0006066666667,"lon":115.917842777778},{"id":"10059","name":"Albany Hwy After Walpole St","lat":-31.9981022222222,"lon":115.915795555556},{"id":"10060","name":"Albany Hwy After Boundary Rd","lat":-31.995733079,"lon":115.914075842},{"id":"10062","name":"Shepperton Rd After Somerset St","lat":-31.9885825661,"lon":115.910155382},{"id":"10063","name":"Shepperton Rd Before Dane St","lat":-31.9862201986,"lon":115.908609367},{"id":"10064","name":"Shepperton Rd After Mint St","lat":-31.9817705555556,"lon":115.905645555556},{"id":"10065","name":"Shepperton Rd Before Miller St","lat":-31.9791462026,"lon":115.903905842},{"id":"10066","name":"Shepperton Rd After Gresham St","lat":-31.9764393773,"lon":115.901403542},{"id":"10067","name":"Shepperton Rd After Axon Av","lat":-31.97469484,"lon":115.899756552},{"id":"10068","name":"Shepperton Rd Before Harper St","lat":-31.9725694444444,"lon":115.897598333333},{"id":"10069","name":"Shepperton Rd Before Rushton St","lat":-31.9705602118,"lon":115.895021493},{"id":"10070","name":"Causeway Bus Stn Stand 6","lat":-31.9682572222222,"lon":115.888872222222},{"id":"10071","name":"Adelaide Tce Westend Causeway","lat":-31.9615519278,"lon":115.876771626},{"id":"10072","name":"Adelaide Tce After Plain St","lat":-31.9605911111111,"lon":115.873911111111},{"id":"10073","name":"Adelaide Tce After Bennett St","lat":-31.9595038888889,"lon":115.870575},{"id":"10074","name":"Adelaide Tce After Hill St","lat":-31.9582205547,"lon":115.866641111},{"id":"10075","name":"St Georges Tce Stand 20 - After Victoria Av","lat":-31.9573505555555,"lon":115.864241666667},{"id":"10076","name":"St Georges Tce Stand 21 - After Victoria Av","lat":-31.9572905555556,"lon":115.86407},{"id":"10077","name":"St Georges Tce Stand 22 - After Victoria Av","lat":-31.9570632973,"lon":115.863401333},{"id":"10080","name":"St Georges Tce Stand 23 -  Before Barrack St","lat":-31.956296582,"lon":115.861052578},{"id":"10081","name":"St Georges Tce Stand 24 - Before Barrack St","lat":-31.9561788814,"lon":115.860701857},{"id":"10082","name":"St Georges Tce Stand 25 - Before Barrack St","lat":-31.955987335,"lon":115.860114024},{"id":"10084","name":"St Georges Tce Stand 26 - After Barrack St","lat":-31.95553,"lon":115.858779444444},{"id":"10085","name":"St Georges Tce Stand 27 - After Sherwood Ct","lat":-31.9553622222222,"lon":115.858272222222},{"id":"10087","name":"St Georges Tce Stand 28 - Before Howard St","lat":-31.9552127777778,"lon":115.857802222222},{"id":"10088","name":"St Georges Tce Stand 29 - Before William St","lat":-31.9549211111111,"lon":115.856921666667},{"id":"10089","name":"St Georges Tce Stand 30 - After William St","lat":-31.9542255555556,"lon":115.854717777778},{"id":"10090","name":"St Georges Tce Stand 31 - After William St","lat":-31.9541603808,"lon":115.854519846},{"id":"10091","name":"St Georges Tce Stand 32 - Cat Id 21","lat":-31.95342,"lon":115.852217777778},{"id":"10092","name":"St Georges Tce Mount Street Cat Id 22","lat":-31.9527183333333,"lon":115.850038888889},{"id":"10093","name":"Malcolm St Harvest Terrace Cat Id 23","lat":-31.9530211111111,"lon":115.847492777778},{"id":"10094","name":"Kings Park Rd Dumas House Cat Id 32","lat":-31.95377,"lon":115.842970555556},{"id":"10095","name":"Kings Park Rd Colin Street Cat Id 106","lat":-31.9527138888889,"lon":115.839775555556},{"id":"10096","name":"Kings Park Rd Outram Street Cat Id 107","lat":-31.9520161111111,"lon":115.837701111111},{"id":"10098","name":"Kings Park Rd Thomas Street Cat Id 108","lat":-31.9510066666667,"lon":115.834550555556},{"id":"10099","name":"Bagot Rd Before Bedford Av","lat":-31.9505505555555,"lon":115.83169},{"id":"10100","name":"Bagot Rd Before Townshend Rd","lat":-31.9505239551,"lon":115.828898947},{"id":"10101","name":"Bagot Rd Before Denis St","lat":-31.9504610164,"lon":115.822255308},{"id":"10102","name":"Bagot Rd After Hensman Rd","lat":-31.9504287031,"lon":115.819090021},{"id":"10103","name":"Bagot Rd After Douglas Av","lat":-31.9504101389,"lon":115.817312464},{"id":"10104","name":"Bagot Rd After Railway Rd","lat":-31.9502898354,"lon":115.816837289},{"id":"10105","name":"Bagot Rd Before Hensman Rd","lat":-31.9503230184,"lon":115.818887768},{"id":"10106","name":"Bagot Rd Before Rowland St","lat":-31.9503605555556,"lon":115.822495555556},{"id":"10107","name":"Bagot Rd Before Francis St","lat":-31.9504215585,"lon":115.829120901},{"id":"10108","name":"Kings Park Rd Thomas Street Cat Id 140","lat":-31.9507288888889,"lon":115.834497222222},{"id":"10110","name":"Kings Park Rd Outram Street Cat Id 141","lat":-31.9518338888889,"lon":115.837891111111},{"id":"10111","name":"Kings Park Rd Colin Street Cat Id 142","lat":-31.9525461111111,"lon":115.840030555556},{"id":"10113","name":"Kings Park Rd Dumas House Cat Id 44","lat":-31.9535733333333,"lon":115.843193888889},{"id":"10114","name":"Malcolm St Harvest Terrace Cat Id 29","lat":-31.9528022222222,"lon":115.84747},{"id":"10115","name":"St Georges Tce Mount Street Cat Id 30","lat":-31.952426627,"lon":115.849817382},{"id":"10116","name":"St Georges Tce Stand 2 - After Milligan St","lat":-31.9533461111111,"lon":115.852632222222},{"id":"10117","name":"St Georges Tce Stand 1 -  Cat Id 31","lat":-31.9531122222222,"lon":115.851915555556},{"id":"10118","name":"St Georges Tce Stand 3 - Before William St","lat":-31.954285,"lon":115.855512777778},{"id":"10121","name":"St Georges Tce Stand 4 - Before William St","lat":-31.9544272222223,"lon":115.855946111111},{"id":"10122","name":"St Georges Tce Stand 5 - Before William St","lat":-31.9545272222222,"lon":115.856246666667},{"id":"10123","name":"St Georges Tce Stand 6 - After William St","lat":-31.9549777777778,"lon":115.857602222222},{"id":"10124","name":"St Georges Tce Stand 8 - Before Barrack St","lat":-31.9554305555556,"lon":115.858987222222},{"id":"10126","name":"St Georges Tce Stand 7 - After William St","lat":-31.9551944444444,"lon":115.858281666667},{"id":"10128","name":"St Georges Tce Stand 9 - Before Pier St","lat":-31.9560538888889,"lon":115.860941666667},{"id":"10129","name":"St Georges Tce Stand 10 - Before Pier St","lat":-31.9561322222222,"lon":115.861180555556},{"id":"10130","name":"St Georges Tce Stand 11 - Before Pier St","lat":-31.9562182727,"lon":115.861446643},{"id":"10132","name":"St Georges Tce Stand 12 - After Irwin St","lat":-31.9569775302,"lon":115.863758403},{"id":"10133","name":"St Georges Tce Stand 13 - After Irwin St","lat":-31.9570744444445,"lon":115.86406},{"id":"10134","name":"St Georges Tce Stand 14 - Before Victoria Av","lat":-31.9571566666667,"lon":115.864314444444},{"id":"10135","name":"Adelaide Tce Before Hill St","lat":-31.9583927777778,"lon":115.867760555556},{"id":"10136","name":"Adelaide Tce Before Bennett St","lat":-31.9593055555555,"lon":115.870530555556},{"id":"10137","name":"Adelaide Tce Before Plain St","lat":-31.9604161111111,"lon":115.873990555556},{"id":"10138","name":"Adelaide Tce Westend Causeway","lat":-31.9618033333333,"lon":115.878134444444},{"id":"10139","name":"Adelaide Tce Westend Causeway","lat":-31.9619022222223,"lon":115.878317222222},{"id":"10140","name":"Causeway Bus Stn Stand 4","lat":-31.9681333333334,"lon":115.888965},{"id":"10141","name":"Causeway Bus Stn Stand 3","lat":-31.9682522222222,"lon":115.889198333333},{"id":"10142","name":"Causeway Bus Stn Stand 2","lat":-31.9683355555555,"lon":115.889365555556},{"id":"10143","name":"Causeway Bus Stn Stand 1","lat":-31.9684522222222,"lon":115.889605555556},{"id":"10144","name":"Shepperton Rd After Teddington Rd","lat":-31.9701713628,"lon":115.894533106},{"id":"10145","name":"Shepperton Rd - Ursula Frayne Catholic Coll Sen","lat":-31.97249,"lon":115.897856111111},{"id":"10146","name":"Shepperton Rd After Axon Av","lat":-31.9756227777778,"lon":115.900866111111},{"id":"10147","name":"Shepperton Rd Before Miller St","lat":-31.9783408735,"lon":115.903536735},{"id":"10148","name":"Shepperton Rd After Cardiff St","lat":-31.9817844444444,"lon":115.905912222222},{"id":"10149","name":"Shepperton Rd Before Dane St","lat":-31.9854337547,"lon":115.908312222},{"id":"10150","name":"Shepperton Rd Before Somerset St","lat":-31.9884385501,"lon":115.910322862},{"id":"10151","name":"Shepperton Rd After Oats St","lat":-31.9926793615,"lon":115.913114104},{"id":"10152","name":"Albany Hwy After Wyndham St","lat":-31.9959175365,"lon":115.914383243},{"id":"10153","name":"Albany Hwy Before Walpole St","lat":-31.9984711111111,"lon":115.916230555556},{"id":"10154","name":"Albany Hwy After Tate St","lat":-32.0003833333333,"lon":115.917866111111},{"id":"10155","name":"Albany Hwy After John St","lat":-32.0032827777778,"lon":115.920479444444},{"id":"10156","name":"Albany Hwy After Alexandra Pl","lat":-32.0060858877,"lon":115.922783071},{"id":"10157","name":"Albany Hwy Before Mills St","lat":-32.0086344444445,"lon":115.924667222222},{"id":"10158","name":"Albany Hwy Before Hamilton St","lat":-32.01048,"lon":115.925993888889},{"id":"10159","name":"Albany Hwy Before Mallard Wy","lat":-32.0128774864,"lon":115.927703855},{"id":"10160","name":"Albany Hwy Before George Wy","lat":-32.0151005555555,"lon":115.92917},{"id":"10161","name":"Albany Hwy Before Fletcher St","lat":-32.0169392746,"lon":115.933201628},{"id":"10162","name":"Albany Hwy Carousel Shop Ctr","lat":-32.0207688888889,"lon":115.937343888889},{"id":"10163","name":"Albany Hwy Carousel Shop Ctr","lat":-32.0209574852,"lon":115.937525927},{"id":"10164","name":"Albany Hwy Before Station St","lat":-32.023450026,"lon":115.940082778},{"id":"10165","name":"Albany Hwy After Station St","lat":-32.0257530094,"lon":115.942889409},{"id":"10166","name":"Albany Hwy After Nicholson Rd","lat":-32.0269177777778,"lon":115.946640555556},{"id":"10167","name":"Albany Hwy Before Clapham St","lat":-32.0277321179,"lon":115.951630068},{"id":"10168","name":"Albany Hwy After Beckenham St","lat":-32.0282076762,"lon":115.955169637},{"id":"10169","name":"Albany Hwy Before Peckham St","lat":-32.0285459939,"lon":115.957591228},{"id":"10170","name":"Albany Hwy Before Apperley St","lat":-32.0349061111111,"lon":115.967555555556},{"id":"10171","name":"Albany Hwy After Wanaping Rd","lat":-32.0381629722,"lon":115.969659655},{"id":"10172","name":"Albany Hwy Before Liddelow St","lat":-32.0411595078,"lon":115.971674216},{"id":"10173","name":"Albany Hwy Before Ozich Ct","lat":-32.0443948685,"lon":115.973879946},{"id":"10174","name":"Albany Hwy After Austin Av","lat":-32.0471237343,"lon":115.975811955},{"id":"10175","name":"Albany Hwy After Herbert St","lat":-32.0490634221,"lon":115.979074273},{"id":"10176","name":"Albany Hwy Before Kelvin Rd","lat":-32.05075,"lon":115.983423333333},{"id":"10177","name":"Albany Hwy Before Dalziell St","lat":-32.0532274323,"lon":115.986835405},{"id":"10178","name":"Albany Hwy Before Burwash Pl","lat":-32.0553021703,"lon":115.989180747},{"id":"10179","name":"Albany Hwy After The Crescent","lat":-32.0571417656,"lon":115.991736014},{"id":"10180","name":"Albany Hwy Before Helm St","lat":-32.0583405027,"lon":115.993424827},{"id":"10181","name":"Albany Hwy Before Pitchford Av","lat":-32.0598512159,"lon":115.995440617},{"id":"10182","name":"Albany Hwy Before Gosnells Rd","lat":-32.0627038157,"lon":115.99864774},{"id":"10183","name":"Albany Hwy After Fremantle Rd","lat":-32.0695182315,"lon":115.999884481},{"id":"10184","name":"Albany Hwy Before  Dorothy  St","lat":-32.0712066666667,"lon":116.001573333333},{"id":"10185","name":"Albany Hwy Before Gerald St","lat":-32.0735637359,"lon":116.004386167},{"id":"10186","name":"Albany Hwy After Clara St","lat":-32.0763934586,"lon":116.007120134},{"id":"10187","name":"Albany Hwy After Verna St","lat":-32.0786318677,"lon":116.008964563},{"id":"10188","name":"Albany Hwy Before Vera St","lat":-32.0804363625,"lon":116.010299062},{"id":"10189","name":"Albany Hwy After Manning Av","lat":-32.0858211111111,"lon":116.011790555556},{"id":"10190","name":"Albany Hwy Before Tonkin Hwy","lat":-32.0871172222222,"lon":116.012052777778},{"id":"10192","name":"Albany Hwy After Tonkin Hwy","lat":-32.0936592404,"lon":116.013467488},{"id":"10193","name":"Albany Hwy Before Lake Rd","lat":-32.0960319946,"lon":116.01334035},{"id":"10194","name":"Albany Hwy After Lake Rd","lat":-32.098580578,"lon":116.012890512},{"id":"10195","name":"Albany Hwy Before Centre Rd","lat":-32.1028354764,"lon":116.012287912},{"id":"10197","name":"Albany Hwy After Turner Pl","lat":-32.1088286987,"lon":116.012951485},{"id":"10198","name":"Albany Hwy - Kelmscott Stargate Shopping Ctr","lat":-32.112905,"lon":116.014066666667},{"id":"10199","name":"Albany Hwy After Denny Av","lat":-32.1162311111111,"lon":116.015947777778},{"id":"10200","name":"Albany Hwy Before Church St","lat":-32.118985,"lon":116.017227222222},{"id":"10201","name":"Albany Hwy After Rundle St","lat":-32.1236550358,"lon":116.018078184},{"id":"10202","name":"Albany Hwy Before Lefroy Rd","lat":-32.1272155555556,"lon":116.018485},{"id":"10203","name":"Albany Hwy After Ecko Rd","lat":-32.1307772222222,"lon":116.018286111111},{"id":"10204","name":"Albany Hwy Armadale Kelmscott Hospital","lat":-32.1337744444444,"lon":116.018002222222},{"id":"10205","name":"Albany Hwy Before Carawatha Av","lat":-32.1360727777778,"lon":116.017881111111},{"id":"10207","name":"Albany Hwy After Caroline St","lat":-32.1394492831,"lon":116.0175977},{"id":"10208","name":"Albany Hwy Before Clarence Rd","lat":-32.1416533333334,"lon":116.017456666667},{"id":"10210","name":"Albany Hwy After Brian St","lat":-32.1458855829,"lon":116.019177738},{"id":"10211","name":"Albany Hwy Before Derry Av","lat":-32.1481793383,"lon":116.020708161},{"id":"10212","name":"William St Before Forrest St","lat":-31.9321712488,"lon":115.866536476},{"id":"10213","name":"William St Before Grosvenor Rd","lat":-31.9345521673,"lon":115.866522222},{"id":"10214","name":"William St Before Chatsworth Rd","lat":-31.9375215115,"lon":115.86593046},{"id":"10215","name":"William St After Lincoln St","lat":-31.9398128848,"lon":115.864504847},{"id":"10216","name":"William St Before Brisbane St","lat":-31.9424788888889,"lon":115.863463333333},{"id":"10217","name":"William St After Monger St","lat":-31.9450412033,"lon":115.861915074},{"id":"10223","name":"William St Perth Underground Station Cat Id 86","lat":-31.9529488888889,"lon":115.857376111111},{"id":"10224","name":"William St Stand 1","lat":-31.9532872222222,"lon":115.857195555556},{"id":"10225","name":"William St Stand 2","lat":-31.9538811111111,"lon":115.856933888889},{"id":"10227","name":"Canning Hwy Before Gloucester St","lat":-31.971463016,"lon":115.885190172},{"id":"10228","name":"Canning Hwy Before Gwenyfred Rd","lat":-31.9747452364,"lon":115.882378181},{"id":"10229","name":"Canning Hwy After Way Rd","lat":-31.9770634534,"lon":115.880434768},{"id":"10230","name":"Canning Hwy Before Brandon St","lat":-31.9789964809,"lon":115.878877951},{"id":"10231","name":"Canning Hwy Before Collins St","lat":-31.9815829223,"lon":115.876738085},{"id":"10232","name":"Canning Hwy After Douglas Av","lat":-31.9844195745,"lon":115.874427049},{"id":"10233","name":"Canning Hwy Before Renwick St","lat":-31.9860055811,"lon":115.873115478},{"id":"10234","name":"Canning Hwy Before Birdwood Av","lat":-31.9894630535,"lon":115.870302183},{"id":"10236","name":"Canning Hwy Before Monash Av","lat":-31.9914174187,"lon":115.868700266},{"id":"10237","name":"Canning Hwy Before Preston St","lat":-31.9945102188,"lon":115.866180939},{"id":"10239","name":"Canning Hwy After Orchid Ln","lat":-31.9972794444444,"lon":115.863916111111},{"id":"10240","name":"Canning Hwy After Coode St","lat":-32.0000756315,"lon":115.862282638},{"id":"10241","name":"Canning Hwy Before Cale St","lat":-32.0027922868,"lon":115.86102435},{"id":"10243","name":"Canning Hwy Before Robert St","lat":-32.0067871199,"lon":115.858891561},{"id":"10245","name":"Canning Hwy After Ogilvie Rd","lat":-32.0132050512,"lon":115.848429772},{"id":"10246","name":"Canning Hwy After Sleat Rd","lat":-32.0151115357,"lon":115.844385672},{"id":"10247","name":"Canning Hwy After Reynolds Rd","lat":-32.0163506847,"lon":115.841786453},{"id":"10248","name":"Canning Hwy After Ardross St","lat":-32.0176799862,"lon":115.838992012},{"id":"10249","name":"Canning Hwy After Tain St","lat":-32.0187172155,"lon":115.837089791},{"id":"10250","name":"Canning Hwy After Riseley St","lat":-32.0208272222222,"lon":115.833183333333},{"id":"10252","name":"Canning Hwy After Collier St","lat":-32.0236883333333,"lon":115.830183888889},{"id":"10253","name":"Canning Hwy After Cunningham St","lat":-32.0255605555556,"lon":115.828295555556},{"id":"10254","name":"Canning Hwy Before Cantray Av","lat":-32.0268938888889,"lon":115.826923888889},{"id":"10255","name":"Canning Hwy After Doney St","lat":-32.0294639398,"lon":115.822591126},{"id":"10257","name":"Canning Hwy Before Coverley St","lat":-32.0303958389,"lon":115.818316761},{"id":"10258","name":"Canning Hwy After North Lake Rd","lat":-32.031217299,"lon":115.814550635},{"id":"10260","name":"Canning Hwy After Latham St","lat":-32.0319678151,"lon":115.811161445},{"id":"10261","name":"Canning Hwy After Rome Rd","lat":-32.0322504134,"lon":115.808043806},{"id":"10262","name":"Canning Hwy Before Preston Point Rd","lat":-32.0323841848,"lon":115.804552329},{"id":"10263","name":"Canning Hwy After Preston Point Rd","lat":-32.0326855919,"lon":115.800049975},{"id":"10264","name":"Canning Hwy After Prinsep Rd","lat":-32.0336762779,"lon":115.796229388},{"id":"10265","name":"Canning Hwy After Moreing Rd","lat":-32.0340988802,"lon":115.794503652},{"id":"10266","name":"Canning Hwy After Hope Rd","lat":-32.034940632,"lon":115.79074281},{"id":"10267","name":"Canning Hwy Before Harris St","lat":-32.035608835,"lon":115.787734862},{"id":"10269","name":"Canning Hwy After Mckimmie Rd","lat":-32.0364659557,"lon":115.784059158},{"id":"10270","name":"Canning Hwy After Adrian St","lat":-32.0371678027,"lon":115.781139597},{"id":"10272","name":"Canning Hwy After Antony St","lat":-32.0381941197,"lon":115.776950554},{"id":"10273","name":"Canning Hwy Before Irwin St","lat":-32.0389405555555,"lon":115.773945555556},{"id":"10274","name":"Canning Hwy Before Dalgety St","lat":-32.03983,"lon":115.771242222222},{"id":"10276","name":"Canning Hwy Before Moss St","lat":-32.0410165729,"lon":115.767607927},{"id":"10277","name":"Canning Hwy After Council Pl","lat":-32.0410855555556,"lon":115.763561666667},{"id":"10278","name":"Canning Hwy After Stirling Hwy","lat":-32.0414486825,"lon":115.760891532},{"id":"10279","name":"Canning Hwy Before Tuckfield St","lat":-32.0424644444444,"lon":115.757609444444},{"id":"10280","name":"Queen Victoria St - Fremantle Traffic Bridge","lat":-32.0432667393,"lon":115.754437242},{"id":"10281","name":"Queen Victoria St Before James St","lat":-32.0454127777778,"lon":115.752855555556},{"id":"10282","name":"Queen Victoria St After Parry St","lat":-32.0479733333333,"lon":115.750944444444},{"id":"10286","name":"Queen Victoria St Before Burt St","lat":-32.0454077777778,"lon":115.752677222222},{"id":"10287","name":"Queen Victoria St - Fremantle Traffic Bridge","lat":-32.0434688888889,"lon":115.753832222222},{"id":"10288","name":"Canning Hwy Before East St","lat":-32.0419211111111,"lon":115.758716666667},{"id":"10290","name":"Canning Hwy Before Preston Point Rd","lat":-32.0409161775,"lon":115.763179827},{"id":"10292","name":"Canning Hwy After Alexandra Rd","lat":-32.0408473113,"lon":115.767594195},{"id":"10293","name":"Canning Hwy After Windsor Rd","lat":-32.0395838888889,"lon":115.771254444444},{"id":"10294","name":"Canning Hwy After Stratford St","lat":-32.0386144444444,"lon":115.774407222222},{"id":"10295","name":"Canning Hwy Before Westbury Cr","lat":-32.0380264202,"lon":115.776981983},{"id":"10296","name":"Canning Hwy Before Yeovil St","lat":-32.0372527898,"lon":115.780214425},{"id":"10298","name":"Canning Hwy Before Point Walter Rd","lat":-32.0363644565,"lon":115.783867703},{"id":"10299","name":"Canning Hwy After Harris St","lat":-32.0354322222222,"lon":115.787853333333},{"id":"10301","name":"Canning Hwy Before Waddell Rd","lat":-32.0344996499,"lon":115.79175212},{"id":"10302","name":"Canning Hwy Before Moreing Rd","lat":-32.0339216666667,"lon":115.794433888889},{"id":"10303","name":"Canning Hwy Before Prinsep Rd","lat":-32.0334896906,"lon":115.796291539},{"id":"10304","name":"Canning Hwy After Preston Point Rd","lat":-32.0322680621,"lon":115.800751226},{"id":"10306","name":"Canning Hwy After Redcourt Rd","lat":-32.0321345468,"lon":115.804190646},{"id":"10307","name":"Canning Hwy After Ince Rd","lat":-32.0319618852,"lon":115.808489386},{"id":"10309","name":"Canning Hwy Before Lentona Rd","lat":-32.0315150508,"lon":115.812147174},{"id":"10310","name":"Canning Hwy After North Lake Rd","lat":-32.0305811111111,"lon":115.816517777778},{"id":"10312","name":"Canning Hwy Before Norma Rd","lat":-32.0298407614,"lon":115.819849636},{"id":"10313","name":"Canning Hwy Before Francis Rd","lat":-32.0292768984,"lon":115.822399961},{"id":"10314","name":"Canning Hwy Before Cantray Av","lat":-32.0270680737,"lon":115.826113698},{"id":"10315","name":"Canning Hwy After Cunningham St","lat":-32.0247008983,"lon":115.828864101},{"id":"10316","name":"Canning Hwy After Collier St","lat":-32.022819688,"lon":115.830765416},{"id":"10317","name":"Canning Hwy Before Conon Rd","lat":-32.0211440025,"lon":115.832464401},{"id":"10318","name":"Canning Hwy After Riseley St","lat":-32.0199116866,"lon":115.834361297},{"id":"10319","name":"Canning Hwy After Tain St","lat":-32.0183066811,"lon":115.837350781},{"id":"10321","name":"Canning Hwy Before Ullapool Rd","lat":-32.0151137709,"lon":115.843748293},{"id":"10322","name":"Canning Hwy After Sleat Rd","lat":-32.0135792497,"lon":115.847191579},{"id":"10323","name":"Canning Hwy Before Kishorn Rd","lat":-32.0126030198,"lon":115.848987625},{"id":"10326","name":"Canning Hwy After Henley St","lat":-32.0049122801,"lon":115.859849465},{"id":"10327","name":"Canning Hwy After Cale St","lat":-32.0028010566,"lon":115.860819235},{"id":"10328","name":"Canning Hwy Before Coode St","lat":-32.0001282539,"lon":115.862050862},{"id":"10330","name":"Canning Hwy After Thelma St","lat":-31.9955411142,"lon":115.865113775},{"id":"10331","name":"Canning Hwy After Preston St","lat":-31.9941363599,"lon":115.866278486},{"id":"10332","name":"Canning Hwy After Comer St","lat":-31.9914907126,"lon":115.868437183},{"id":"10335","name":"Canning Hwy Before Norton St","lat":-31.9877538888889,"lon":115.871483888889},{"id":"10336","name":"Canning Hwy Before Hensman St","lat":-31.9859755555556,"lon":115.872905},{"id":"10338","name":"Canning Hwy After Cliffe St","lat":-31.9821630153,"lon":115.876060607},{"id":"10339","name":"Canning Hwy After Collins St","lat":-31.9806280151,"lon":115.877323871},{"id":"10340","name":"Canning Hwy After Banksia Tce","lat":-31.9780538171,"lon":115.879366336},{"id":"10341","name":"Canning Hwy After Way Rd","lat":-31.9757417004,"lon":115.881310416},{"id":"10342","name":"Canning Hwy After Berwick St","lat":-31.9732324584,"lon":115.883380742},{"id":"10343","name":"Canning Hwy After Taylor St","lat":-31.9714181369,"lon":115.884925758},{"id":"10344","name":"Stirling Hwy After Queen Victoria St","lat":-32.0322305555555,"lon":115.752743333333},{"id":"10345","name":"Stirling Hwy North Fremantle Stn","lat":-32.0296294444444,"lon":115.75225},{"id":"10346","name":"Stirling Hwy Before Stone St","lat":-32.0266988888889,"lon":115.752460555556},{"id":"10347","name":"Stirling Hwy Before Coventry Pde","lat":-32.0244127777778,"lon":115.752916111111},{"id":"10348","name":"Stirling Hwy Before Vlamingh Pde","lat":-32.0209,"lon":115.75358},{"id":"10349","name":"Stirling Hwy After Wellington St","lat":-32.0143088888889,"lon":115.754905555556},{"id":"10350","name":"Stirling Hwy Before Victoria St","lat":-32.0122016666667,"lon":115.755151666667},{"id":"10352","name":"Stirling Hwy After St Leonards St","lat":-32.0080605555556,"lon":115.756953888889},{"id":"10353","name":"Stirling Hwy After Stuart St","lat":-32.0058588888889,"lon":115.758453333333},{"id":"10354","name":"Stirling Hwy Before Johnston St","lat":-32.00365,"lon":115.759859444444},{"id":"10355","name":"Stirling Hwy Before Keane St","lat":-32.0018388888889,"lon":115.76055},{"id":"10356","name":"Stirling Hwy After Leake St","lat":-31.9973933333333,"lon":115.763154444444},{"id":"10358","name":"Stirling Hwy After Vera St","lat":-31.9951866666667,"lon":115.764774444444},{"id":"10359","name":"Stirling Hwy After Napier St","lat":-31.9926505555555,"lon":115.766636111111},{"id":"10360","name":"Stirling Hwy After Boreham St","lat":-31.990295,"lon":115.767821111111},{"id":"10361","name":"Stirling Hwy After Wilson St","lat":-31.9886144444445,"lon":115.768793333333},{"id":"10362","name":"Stirling Hwy After Prospect St","lat":-31.9872516666667,"lon":115.77052},{"id":"10365","name":"Stirling Hwy Before Dean St","lat":-31.9851711111111,"lon":115.775193333333},{"id":"10368","name":"Stirling Hwy Before Mary St","lat":-31.9824777777778,"lon":115.783412777778},{"id":"10370","name":"Stirling Hwy Before Walter St","lat":-31.9818822222222,"lon":115.787812777778},{"id":"10371","name":"Stirling Hwy Before Loftus St","lat":-31.9811,"lon":115.792068888889},{"id":"10372","name":"Stirling Hwy Before Ord St","lat":-31.9806872222222,"lon":115.794283888889},{"id":"10373","name":"Stirling Hwy Before Weld St","lat":-31.9802577777778,"lon":115.796623888889},{"id":"10374","name":"Stirling Hwy Before Martin Av","lat":-31.9797872222222,"lon":115.799207777778},{"id":"10375","name":"Stirling Hwy Before Boronia Av","lat":-31.9790927777778,"lon":115.803460555556},{"id":"10377","name":"Stirling Hwy After Smyth Rd","lat":-31.9785611111111,"lon":115.806311666667},{"id":"10378","name":"Stirling Hwy After Portland St","lat":-31.9780505555556,"lon":115.809355},{"id":"10380","name":"Stirling Hwy After Clifton St","lat":-31.9775433333334,"lon":115.812315},{"id":"10381","name":"Stirling Hwy Opposite University Of Wa","lat":-31.9761322222222,"lon":115.816032777778},{"id":"10382","name":"Mounts Bay Rd After Winthrop Av","lat":-31.9752361111111,"lon":115.819301666667},{"id":"10383","name":"Mounts Bay Rd After Hackett Dr","lat":-31.9747834637,"lon":115.822736326},{"id":"10384","name":"Mounts Bay Rd Before Wingfield Av","lat":-31.9736218471,"lon":115.82515286},{"id":"10385","name":"Mounts Bay Rd Old Swan Brewery","lat":-31.9647716666667,"lon":115.840195555556},{"id":"10386","name":"Mounts Bay Rd Old Swan Brewery","lat":-31.9654268383,"lon":115.840042193},{"id":"10387","name":"Mounts Bay Rd After Crawley Av","lat":-31.9750830234,"lon":115.822558282},{"id":"10388","name":"Mounts Bay Rd Before Winthrop Av","lat":-31.9756511111111,"lon":115.818712222222},{"id":"10389","name":"Stirling Hwy University Of Wa","lat":-31.9759183333333,"lon":115.817447222222},{"id":"10390","name":"Stirling Hwy After Fairway","lat":-31.9767773964,"lon":115.815291768},{"id":"10391","name":"Stirling Hwy After Broadway","lat":-31.9777266666667,"lon":115.812085555556},{"id":"10392","name":"Stirling Hwy Before Tyrell St","lat":-31.9782116666667,"lon":115.809260555556},{"id":"10393","name":"Stirling Hwy Before Webster St","lat":-31.978665,"lon":115.806640555556},{"id":"10395","name":"Stirling Hwy After Dalkeith Rd","lat":-31.9795044444444,"lon":115.802033888889},{"id":"10396","name":"Stirling Hwy Before Vincent St","lat":-31.9799016666666,"lon":115.799628333333},{"id":"10398","name":"Stirling Hwy Before Taylor Rd","lat":-31.9806183333333,"lon":115.795621666667},{"id":"10399","name":"Stirling Hwy After Napier St","lat":-31.9810072222222,"lon":115.793460555556},{"id":"10400","name":"Stirling Hwy Before Bay Rd","lat":-31.9814661111111,"lon":115.790892777778},{"id":"10401","name":"Stirling Hwy After Bay Rd","lat":-31.9819416666667,"lon":115.788276666667},{"id":"10402","name":"Stirling Hwy After John St","lat":-31.9825061111111,"lon":115.784523333333},{"id":"10404","name":"Stirling Hwy After Queenslea Dr","lat":-31.9845988888889,"lon":115.777307777778},{"id":"10405","name":"Stirling Hwy After Dean St","lat":-31.9856688888889,"lon":115.774335555556},{"id":"10406","name":"Stirling Hwy After Richardson Av","lat":-31.9869944444445,"lon":115.771288333333},{"id":"10408","name":"Stirling Hwy Before Wilson St","lat":-31.9889505555556,"lon":115.768732222222},{"id":"10409","name":"Stirling Hwy Before Boreham St","lat":-31.9906038888889,"lon":115.767902222222},{"id":"10410","name":"Stirling Hwy After Airlie St","lat":-31.9930516666666,"lon":115.766532777778},{"id":"10411","name":"Stirling Hwy Before Vera St","lat":-31.995035,"lon":115.765077777778},{"id":"10412","name":"Stirling Hwy Before Clapham Ln","lat":-31.9983594444444,"lon":115.762722222222},{"id":"10414","name":"Stirling Hwy After Keane St","lat":-32.0020377777778,"lon":115.760686666667},{"id":"10415","name":"Stirling Hwy After Johnston St","lat":-32.0040622222222,"lon":115.759822222222},{"id":"10416","name":"Stirling Hwy Before Stuart St","lat":-32.0061577777778,"lon":115.758421666667},{"id":"10417","name":"Stirling Hwy After Glyde St","lat":-32.0080838888889,"lon":115.757126111111},{"id":"10418","name":"Stirling Hwy After Victoria St","lat":-32.0120492759,"lon":115.755370304},{"id":"10419","name":"Stirling Hwy After Wellington St","lat":-32.0151594444445,"lon":115.75544},{"id":"10420","name":"Stirling Hwy After Vlamingh Pde","lat":-32.0213488888889,"lon":115.753760555556},{"id":"10421","name":"Stirling Hwy Before Pamment St","lat":-32.0245977777778,"lon":115.753061111111},{"id":"10422","name":"Stirling Hwy After Christina Pde","lat":-32.026825,"lon":115.752611111111},{"id":"10423","name":"Stirling Hwy North Fremantle Stn","lat":-32.0301316666666,"lon":115.752505},{"id":"10424","name":"Stirling Hwy After Alfred Rd","lat":-32.0320561111111,"lon":115.752881666667},{"id":"10425","name":"Adelaide St After Queen St","lat":-32.0525344444445,"lon":115.748372222222},{"id":"10426","name":"Adelaide St Before Parry St","lat":-32.0506455555555,"lon":115.749632222222},{"id":"10427","name":"Adelaide St After Parry St","lat":-32.0513361111111,"lon":115.749367777778},{"id":"10428","name":"Fremantle Stn Stand 1","lat":-32.0520794444444,"lon":115.745455555556},{"id":"10429","name":"Fremantle Stn Stand 2","lat":-32.0519405555556,"lon":115.745593888889},{"id":"10430","name":"Fremantle Stn Stand 3","lat":-32.0517888888889,"lon":115.74574},{"id":"10431","name":"Fremantle Stn Stand 4","lat":-32.0516361111111,"lon":115.745893888889},{"id":"10432","name":"Fremantle Stn Stand 5","lat":-32.0515222222222,"lon":115.746010555556},{"id":"10434","name":"Fremantle Stn Stand 7","lat":-32.0520638888889,"lon":115.745637777778},{"id":"10435","name":"Fremantle Stn Stand 8","lat":-32.0518983333333,"lon":115.7458},{"id":"10436","name":"Fremantle Stn Stand 9","lat":-32.0517494444445,"lon":115.745946666667},{"id":"10437","name":"Fremantle Stn Stand 10","lat":-32.0515961111111,"lon":115.746101666667},{"id":"10438","name":"Fremantle Stn Stand 11","lat":-32.0519061111111,"lon":115.745958333333},{"id":"10439","name":"Fremantle Stn Stand 12","lat":-32.0517727777778,"lon":115.746092222222},{"id":"10443","name":"Queen St Before Adelaide St","lat":-32.0529022222222,"lon":115.747857777778},{"id":"10451","name":"Beach St After James St","lat":-32.0476427777778,"lon":115.749977222222},{"id":"10452","name":"Beach St Cheviot Hotel","lat":-32.049221106,"lon":115.748857032},{"id":"10453","name":"South Tce After Market St","lat":-32.0553916666667,"lon":115.74703},{"id":"10454","name":"South Tce - Fremantle Hospital","lat":-32.0576061111111,"lon":115.750347222222},{"id":"10455","name":"South Tce Before Grey St","lat":-32.061085,"lon":115.752126111111},{"id":"10456","name":"South Tce Before Price St","lat":-32.06251,"lon":115.752451666667},{"id":"10457","name":"South Tce After Gold St","lat":-32.0648822222222,"lon":115.752496111111},{"id":"10458","name":"South Tce After Charles St","lat":-32.0667266666667,"lon":115.752527777778},{"id":"10459","name":"South Tce After Wardie St","lat":-32.0699788888889,"lon":115.752826111111},{"id":"10460","name":"South Tce Before Orient St","lat":-32.0719022222222,"lon":115.753016666667},{"id":"10461","name":"South Tce Before Commercial St","lat":-32.0727922222222,"lon":115.752962777778},{"id":"10463","name":"South Tce After Wardie St","lat":-32.0692422222222,"lon":115.752602777778},{"id":"10464","name":"South Tce After Gold St","lat":-32.0640905555555,"lon":115.752337222222},{"id":"10465","name":"South Tce After Price St","lat":-32.0624427777778,"lon":115.752295},{"id":"10466","name":"South Tce After Grey St","lat":-32.0609751643,"lon":115.751926001},{"id":"10467","name":"South Tce Before Arundel St","lat":-32.058765,"lon":115.750835555556},{"id":"10468","name":"South Tce Fremantle Markets","lat":-32.0564555555555,"lon":115.748838333333},{"id":"10469","name":"Market St Before High St","lat":-32.05487,"lon":115.746557777778},{"id":"10470","name":"Wray Av Before Attfield St","lat":-32.0604400373,"lon":115.75366914},{"id":"10471","name":"Wray Av Before Hampton Rd","lat":-32.0613882307,"lon":115.755934962},{"id":"10472","name":"Wray Av After Ashburton Tce","lat":-32.0622655555556,"lon":115.757701666667},{"id":"10473","name":"South St After Lilly St","lat":-32.0635161111111,"lon":115.756093888889},{"id":"10474","name":"South St Before Edmund St","lat":-32.0634438888889,"lon":115.761196666667},{"id":"10475","name":"South St Before Davies St","lat":-32.0633927777778,"lon":115.765048333333},{"id":"10476","name":"South St After Lewington St","lat":-32.0633527777778,"lon":115.767757222222},{"id":"10477","name":"South St After Nannine Av","lat":-32.0633141385,"lon":115.771015479},{"id":"10478","name":"South St After Stokes St","lat":-32.0632844444444,"lon":115.773602777778},{"id":"10479","name":"South St Before Smith St","lat":-32.0632390914,"lon":115.7775846},{"id":"10480","name":"South St Before Victor St","lat":-32.0631993419,"lon":115.780385996},{"id":"10481","name":"South St After Hines Rd","lat":-32.063165,"lon":115.785003333333},{"id":"10483","name":"South St After Stockdale Rd","lat":-32.0631116173,"lon":115.78933209},{"id":"10484","name":"South St After Yarrick St","lat":-32.0642994944,"lon":115.796614166},{"id":"10485","name":"South St After Ladner St","lat":-32.0653077777778,"lon":115.801036111111},{"id":"10486","name":"South St After Plane Tree Gr","lat":-32.0659124499,"lon":115.803830824},{"id":"10487","name":"South St After Petterson Av","lat":-32.0669405555556,"lon":115.808395},{"id":"10488","name":"South St Before North Lake Rd","lat":-32.0682435583,"lon":115.811697031},{"id":"10489","name":"South St After North Lake Rd","lat":-32.0685244444444,"lon":115.815968888889},{"id":"10490","name":"South St Before Gilbertson Rd","lat":-32.0685255555555,"lon":115.818366111111},{"id":"10491","name":"South St After Gilbertson Rd","lat":-32.0684920185,"lon":115.821237321},{"id":"10492","name":"South St After Windelya Rd","lat":-32.0684322222222,"lon":115.824272777778},{"id":"10493","name":"South St Before Prescott Dr","lat":-32.0668210059,"lon":115.827674409},{"id":"10494","name":"South St After Prescott Dr","lat":-32.0646791387,"lon":115.830769177},{"id":"10495","name":"South St Murdoch University","lat":-32.0636203513,"lon":115.835135232},{"id":"10496","name":"South St Before Murdoch Dr","lat":-32.0648534976,"lon":115.840930803},{"id":"10497","name":"South St Murdoch Hospital","lat":-32.0654962595,"lon":115.843692371},{"id":"10498","name":"South St After Kwinana Fwy","lat":-32.0656533333333,"lon":115.855328333333},{"id":"10499","name":"South St After Calley Dr","lat":-32.065645,"lon":115.857234444444},{"id":"10500","name":"South St After Findlay Rd","lat":-32.0656455555555,"lon":115.863009444444},{"id":"10501","name":"South St After Wheatley Dr","lat":-32.0656267147,"lon":115.865836399},{"id":"10502","name":"South St Before Karel Av","lat":-32.06588,"lon":115.869396666667},{"id":"10503","name":"South St After Gracechurch Cr","lat":-32.0667232321,"lon":115.876900813},{"id":"10504","name":"South St After Darian Dr","lat":-32.0666285355,"lon":115.882067031},{"id":"10505","name":"South St After Beasley Rd","lat":-32.0665423229,"lon":115.885544638},{"id":"10507","name":"Ranford Rd After Bannister Rd","lat":-32.0725261111111,"lon":115.893834444444},{"id":"10508","name":"Ranford Rd Before Livingstone Dr","lat":-32.0777661357,"lon":115.901526132},{"id":"10509","name":"Ranford Rd Before Waratah Bvd","lat":-32.0797795949,"lon":115.905365154},{"id":"10510","name":"Ranford Rd Before Wilfred Rd","lat":-32.0814094444444,"lon":115.908548888889},{"id":"10511","name":"Ranford Rd After Wilfred Rd","lat":-32.0826277533,"lon":115.910745729},{"id":"10512","name":"Ranford Rd Before Banksia Esp","lat":-32.0841950316,"lon":115.912768565},{"id":"10513","name":"Ranford Rd - Livingston Marketplace","lat":-32.0870783333334,"lon":115.915992777778},{"id":"10514","name":"Ranford Rd Before Grand Bvd","lat":-32.0895655555556,"lon":115.918792777778},{"id":"10515","name":"Ranford Rd Before Campbell Rd","lat":-32.0924427777778,"lon":115.925110555556},{"id":"10516","name":"Ranford Rd After Sanctuary Av","lat":-32.0980993843,"lon":115.930511974},{"id":"10517","name":"Ranford Rd After Warton Rd","lat":-32.0983050741,"lon":115.930171911},{"id":"10518","name":"Ranford Rd After Campbell Rd","lat":-32.0926636987,"lon":115.924920984},{"id":"10519","name":"Ranford Rd Before Nicholson Rd","lat":-32.0906516666666,"lon":115.919599444444},{"id":"10520","name":"Ranford Rd - Livingston Marketplace","lat":-32.0874738888889,"lon":115.915967222222},{"id":"10521","name":"Ranford Rd Before Brennan Av","lat":-32.0848768125,"lon":115.913094699},{"id":"10522","name":"Ranford Rd Before Wilfred Rd","lat":-32.0826771536,"lon":115.910326549},{"id":"10523","name":"Ranford Rd After Wilfred Rd","lat":-32.0814483333334,"lon":115.907999444444},{"id":"10524","name":"Ranford Rd After Waratah Bvd","lat":-32.0801316666667,"lon":115.905461666667},{"id":"10525","name":"Ranford Rd After Livingstone Dr","lat":-32.0778638888889,"lon":115.901086666667},{"id":"10526","name":"Ranford Rd Before Bannister Rd","lat":-32.0732577777778,"lon":115.894345},{"id":"10528","name":"South St After Beasley Rd","lat":-32.0666667448,"lon":115.884244788},{"id":"10529","name":"South St After Darian Dr","lat":-32.0670339669,"lon":115.881462255},{"id":"10530","name":"South St After Gracechurch Cr","lat":-32.0668096466,"lon":115.875058103},{"id":"10531","name":"South St After Karel Av","lat":-32.0661966666667,"lon":115.869549444444},{"id":"10532","name":"South St After Westmorland Dr","lat":-32.065903888,"lon":115.865985113},{"id":"10533","name":"South St Before Findlay Rd","lat":-32.0659166666667,"lon":115.863281666667},{"id":"10534","name":"South St Before Calley Dr","lat":-32.0659423343,"lon":115.857615541},{"id":"10535","name":"South St After Calley Dr","lat":-32.0659527777778,"lon":115.854686666667},{"id":"10536","name":"South St Murdoch Hospital","lat":-32.0660006399,"lon":115.845736865},{"id":"10537","name":"South St Murdoch University","lat":-32.0643669707,"lon":115.837718946},{"id":"10538","name":"South St Before Prescott Dr","lat":-32.0649841929,"lon":115.830794273},{"id":"10539","name":"South St After Prescott Dr","lat":-32.0665644973,"lon":115.828527559},{"id":"10540","name":"South St After Windelya Rd","lat":-32.0687344444444,"lon":115.823637222222},{"id":"10541","name":"South St After Pinewood Av","lat":-32.0687646619,"lon":115.820971646},{"id":"10542","name":"South St After Gilbertson Rd","lat":-32.0688166666667,"lon":115.816932777778},{"id":"10543","name":"South St After North Lake Rd","lat":-32.0682638171,"lon":115.810947822},{"id":"10544","name":"South St After Petterson Av","lat":-32.0669933333334,"lon":115.807390555556},{"id":"10545","name":"South St Before Mccombe Av","lat":-32.0661212943,"lon":115.803442747},{"id":"10546","name":"South St After Mccombe Av","lat":-32.0654255555556,"lon":115.80031},{"id":"10548","name":"South St Before Stock Rd","lat":-32.0646243454,"lon":115.796550071},{"id":"10549","name":"South St After Collick St","lat":-32.0634005674,"lon":115.78870305},{"id":"10550","name":"South St After Hines Rd","lat":-32.0633061111111,"lon":115.7833},{"id":"10551","name":"South St Before Carrington St","lat":-32.0633433333333,"lon":115.780367777778},{"id":"10552","name":"South St After Darling St","lat":-32.0633427777778,"lon":115.777783333333},{"id":"10553","name":"South St After Gibson St","lat":-32.0633783333333,"lon":115.7747},{"id":"10555","name":"South St Before Nannine Av","lat":-32.0634377777778,"lon":115.770765},{"id":"10556","name":"South St Before Wiluna Av","lat":-32.0634855555555,"lon":115.768462222222},{"id":"10557","name":"South St Before Davies St","lat":-32.0635088888889,"lon":115.765078888889},{"id":"10558","name":"South St After Edmund St","lat":-32.0635627777778,"lon":115.761358888889},{"id":"10559","name":"South St After Hampton Rd","lat":-32.0636327777778,"lon":115.756185555556},{"id":"10560","name":"South St After Carnac Wy","lat":-32.0636792058,"lon":115.753399195},{"id":"10561","name":"Hampton Rd After Knutsford St","lat":-32.0546227777778,"lon":115.754985},{"id":"10562","name":"Hampton Rd After Alma St","lat":-32.0581838888889,"lon":115.755903333333},{"id":"10563","name":"Hampton Rd Before Wray Av","lat":-32.0603405555556,"lon":115.756554444444},{"id":"10564","name":"Hampton Rd After South St","lat":-32.0642811111111,"lon":115.757165555556},{"id":"10565","name":"Hampton Rd Before Lefroy Rd","lat":-32.0671215924,"lon":115.757577912},{"id":"10566","name":"Hampton Rd Before Scott St","lat":-32.0698034425,"lon":115.757898126},{"id":"10567","name":"Hampton Rd After Milbourne St","lat":-32.0721699052,"lon":115.758576343},{"id":"10568","name":"Hampton Rd After Culver St","lat":-32.0751697975,"lon":115.761086556},{"id":"10569","name":"Rockingham Rd Before Cardigan St","lat":-32.0787338888889,"lon":115.762589444444},{"id":"10570","name":"Rockingham Rd Before Davilak Av","lat":-32.080682018,"lon":115.766572552},{"id":"10571","name":"Rockingham Rd Hamilton Hill Shopping Ctr","lat":-32.0820217411,"lon":115.769441591},{"id":"10572","name":"Rockingham Rd After Forrest Rd","lat":-32.0835477777778,"lon":115.772639444444},{"id":"10573","name":"Rockingham Rd Before Hamilton Rd","lat":-32.0852892424,"lon":115.775867188},{"id":"10574","name":"Rockingham Rd After Carrington St","lat":-32.0866565115,"lon":115.777850169},{"id":"10575","name":"Rockingham Rd Before Packham Rd","lat":-32.0883033953,"lon":115.780930309},{"id":"10576","name":"Rockingham Rd After Snare Pl","lat":-32.0911413386,"lon":115.78285734},{"id":"10577","name":"Rockingham Rd Before Phoenix Rd","lat":-32.0932084648,"lon":115.782864275},{"id":"10578","name":"Rockingham Rd - Phoenix Shopping Ctr","lat":-32.097988863,"lon":115.782889292},{"id":"10579","name":"Rockingham Rd Before Edeline St","lat":-32.1032458716,"lon":115.78274458},{"id":"10580","name":"Rockingham Rd Before Reserve Rd","lat":-32.10618298,"lon":115.78276053},{"id":"10581","name":"Rockingham Rd After Todd St","lat":-32.1085826631,"lon":115.782771987},{"id":"10583","name":"Rockingham Rd After Newton St","lat":-32.1115308402,"lon":115.78278849},{"id":"10584","name":"Rockingham Rd Before Barrett St","lat":-32.113,"lon":115.782744444444},{"id":"10585","name":"Rockingham Rd After Gerovich Wy","lat":-32.1156792992,"lon":115.782802491},{"id":"10586","name":"Rockingham Rd After Barrington St","lat":-32.1179752539,"lon":115.782808856},{"id":"10587","name":"Rockingham Rd After Troode St","lat":-32.1207851446,"lon":115.7832694},{"id":"10588","name":"Rockingham Rd After Asquith St","lat":-32.1252577769,"lon":115.785085267},{"id":"10590","name":"Rockingham Rd Before Russell Rd","lat":-32.1452033877,"lon":115.789962012},{"id":"10591","name":"Rockingham Rd After Dalison Av","lat":-32.1742206655,"lon":115.794127719},{"id":"10592","name":"Rockingham Rd Before Wattleup Rd","lat":-32.1763746086,"lon":115.794150502},{"id":"10593","name":"Rockingham Rd Before Hope Valley Rd","lat":-32.1890324703,"lon":115.786670766},{"id":"10594","name":"Rockingham Rd After Lionel St","lat":-32.1962694734,"lon":115.782670003},{"id":"10595","name":"Rockingham Rd After Macedonia St","lat":-32.2021332877,"lon":115.782587876},{"id":"10597","name":"Rockingham Rd After Anketell Rd","lat":-32.2106051242,"lon":115.786012167},{"id":"10598","name":"Rockingham Rd Before Mason Rd","lat":-32.2314591913,"lon":115.77987799},{"id":"10599","name":"Patterson Rd Before Richardson St","lat":-32.238877957,"lon":115.777471361},{"id":"10600","name":"Patterson Rd Before Beach St","lat":-32.2429967336,"lon":115.776570998},{"id":"10601","name":"Patterson Rd After Ocean St","lat":-32.2474543048,"lon":115.772935514},{"id":"10602","name":"Patterson Rd Before Office Rd","lat":-32.2495469641,"lon":115.771225033},{"id":"10603","name":"Patterson Rd After Office Rd","lat":-32.2492869441,"lon":115.770924657},{"id":"10604","name":"Patterson Rd Before Ocean St","lat":-32.2470688888889,"lon":115.772721666667},{"id":"10605","name":"Patterson Rd Before Charles  St","lat":-32.2536552758,"lon":115.767894083},{"id":"10607","name":"Patterson Rd Before Lithia Rd","lat":-32.2593375431,"lon":115.763261171},{"id":"10608","name":"Patterson Rd After Lithia Rd","lat":-32.2618403759,"lon":115.761226903},{"id":"10609","name":"Patterson Rd After Alumina Rd","lat":-32.2646137679,"lon":115.758964122},{"id":"10613","name":"Patterson Rd Before Alumina Rd","lat":-32.2642805555556,"lon":115.758674444444},{"id":"10614","name":"Patterson Rd After Alumina Rd","lat":-32.2614983554,"lon":115.760953737},{"id":"10615","name":"Patterson Rd After Lithia Rd","lat":-32.2589916666666,"lon":115.762990555556},{"id":"10616","name":"Patterson Rd After Charles St","lat":-32.2544138279,"lon":115.766701762},{"id":"10617","name":"Patterson Rd After Kwinana Beach Rd","lat":-32.2433098832,"lon":115.775774982},{"id":"10618","name":"Patterson Rd After Richardson St","lat":-32.2389750805,"lon":115.777037723},{"id":"10619","name":"Rockingham Rd After Mason Rd","lat":-32.2314318525,"lon":115.779269634},{"id":"10620","name":"Rockingham Rd Before Anketell Rd","lat":-32.2120617719,"lon":115.785666341},{"id":"10622","name":"Rockingham Rd After Macedonia St","lat":-32.20099879,"lon":115.782199023},{"id":"10623","name":"Rockingham Rd Before Lionel St","lat":-32.1963177777778,"lon":115.782277222222},{"id":"10624","name":"Rockingham Rd After Hope Valley Rd","lat":-32.1890315227,"lon":115.786101608},{"id":"10626","name":"Rockingham Rd After Wattleup Rd","lat":-32.1767813537,"lon":115.793427107},{"id":"10627","name":"Rockingham Rd Before Dalison Av","lat":-32.1735579333,"lon":115.793145},{"id":"10630","name":"Rockingham Rd After Russell Rd","lat":-32.1451472222222,"lon":115.789359444444},{"id":"10631","name":"Rockingham Rd After Fanstone Av","lat":-32.1383851828,"lon":115.78955592},{"id":"10632","name":"Rockingham Rd Before West Churchill Av","lat":-32.1341993647,"lon":115.787345485},{"id":"10633","name":"Rockingham Rd After West Churchill Av","lat":-32.1319022222222,"lon":115.786718888889},{"id":"10634","name":"Rockingham Rd Before Mayor Rd","lat":-32.1292509986,"lon":115.786300901},{"id":"10635","name":"Rockingham Rd After Bacich Mews","lat":-32.1256014563,"lon":115.785096169},{"id":"10637","name":"Rockingham Rd After Marvell Av","lat":-32.1220077777778,"lon":115.783628888889},{"id":"10638","name":"Rockingham Rd After Troode St","lat":-32.1198018025,"lon":115.782719485},{"id":"10639","name":"Rockingham Rd Before Barrington St","lat":-32.1176488888889,"lon":115.782676666667},{"id":"10640","name":"Rockingham Rd Before Gerovich Wy","lat":-32.1156333388,"lon":115.782678314},{"id":"10641","name":"Rockingham Rd After Barrett St","lat":-32.1132067018,"lon":115.78266092},{"id":"10642","name":"Rockingham Rd Before Newton St","lat":-32.1119533077,"lon":115.782656707},{"id":"10643","name":"Rockingham Rd After Newton St","lat":-32.1086405555556,"lon":115.782635555556},{"id":"10644","name":"Rockingham Rd After Rigby Av","lat":-32.1061369103,"lon":115.782616379},{"id":"10645","name":"Rockingham Rd After Edeline St","lat":-32.1036293057,"lon":115.782588774},{"id":"10646","name":"Rockingham Rd After Spearwood Av","lat":-32.1017257349,"lon":115.782623319},{"id":"10647","name":"Rockingham Rd After Kent St","lat":-32.0982171163,"lon":115.782665151},{"id":"10648","name":"Rockingham Rd Before Phoenix Rd","lat":-32.0941697738,"lon":115.782646858},{"id":"10649","name":"Rockingham Rd After Phoenix Rd","lat":-32.0913111111111,"lon":115.782700555556},{"id":"10650","name":"Rockingham Rd Before Packham Rd","lat":-32.0886913833,"lon":115.7813742},{"id":"10651","name":"Rockingham Rd Before Carrington St","lat":-32.0868178245,"lon":115.777856553},{"id":"10652","name":"Rockingham Rd After Hamilton Rd","lat":-32.0850306549,"lon":115.775374404},{"id":"10653","name":"Rockingham Rd After Strode Av","lat":-32.0835805555556,"lon":115.772432777778},{"id":"10654","name":"Rockingham Rd - Hamilton Hill Shopping Ctr","lat":-32.0819798507,"lon":115.769004663},{"id":"10655","name":"Rockingham Rd Before Davilak Av","lat":-32.0809836857,"lon":115.766890247},{"id":"10656","name":"Rockingham Rd Before Healy Rd","lat":-32.0787822718,"lon":115.762361947},{"id":"10657","name":"Cockburn Rd After Boyd Cr","lat":-32.0804640141,"lon":115.761285233},{"id":"10658","name":"Cockburn Rd After Emplacement Cr","lat":-32.0867583333333,"lon":115.76127},{"id":"10661","name":"Cockburn Rd After Beach Rd","lat":-32.1127194924,"lon":115.765487891},{"id":"10662","name":"Cockburn Rd After Amity Bvd","lat":-32.1169538719,"lon":115.765978244},{"id":"10663","name":"Cockburn Rd After Poore Gr","lat":-32.1203916309,"lon":115.766487999},{"id":"10664","name":"Cockburn Rd Before Magazine Ct","lat":-32.1284440787,"lon":115.768108046},{"id":"10665","name":"Cockburn Rd After Okane Ct","lat":-32.1353681975,"lon":115.767862855},{"id":"10666","name":"Cockburn Rd Before Qull Wy","lat":-32.1442772222222,"lon":115.768659444444},{"id":"10667","name":"Cockburn Rd Before Gemma Rd","lat":-32.1701787236,"lon":115.773089112},{"id":"10668","name":"Cockburn Rd Before Sutton Rd","lat":-32.1794166652,"lon":115.775304484},{"id":"10670","name":"Cockburn Rd Before Hogg Rd","lat":-32.185763916,"lon":115.778300209},{"id":"10671","name":"Cockburn Rd After Hope Valley Rd","lat":-32.1898583891,"lon":115.781050419},{"id":"10672","name":"Cockburn Rd After Rockingham Rd","lat":-32.1905059788,"lon":115.781133124},{"id":"10673","name":"Cockburn Rd After Hogg Rd","lat":-32.1857580333,"lon":115.778149071},{"id":"10674","name":"Cockburn Rd After Sutton Rd","lat":-32.1793296996,"lon":115.775122903},{"id":"10675","name":"Cockburn Rd After Gemma Rd","lat":-32.1701452855,"lon":115.772920071},{"id":"10676","name":"Cockburn Rd After Quill Wy","lat":-32.14428,"lon":115.768562222222},{"id":"10677","name":"Cockburn Rd After Okane Ct","lat":-32.1327956496,"lon":115.767592827},{"id":"10678","name":"Cockburn Rd After Magazine Ct","lat":-32.1286262975,"lon":115.767955279},{"id":"10679","name":"Cockburn Rd Before Poore Gr","lat":-32.1207005555556,"lon":115.766382222222},{"id":"10680","name":"Cockburn Rd After Amity Bvd","lat":-32.1155033333333,"lon":115.765615555556},{"id":"10681","name":"Cockburn Rd After Beach Rd","lat":-32.1108905555556,"lon":115.764709444444},{"id":"10684","name":"Cockburn Rd Before Emplacement Cr","lat":-32.0865560907,"lon":115.761056525},{"id":"10685","name":"Cockburn Rd Before Boyd Cr","lat":-32.0805651008,"lon":115.761131954},{"id":"10686","name":"Hampton Rd After Brockman Pl","lat":-32.0761736089,"lon":115.761154999},{"id":"10687","name":"Hampton Rd After Culver St","lat":-32.0742850861,"lon":115.760000227},{"id":"10688","name":"Hampton Rd Before Scott St","lat":-32.0706057538,"lon":115.757833411},{"id":"10689","name":"Hampton Rd After Lefroy Rd","lat":-32.0667105555556,"lon":115.757307777778},{"id":"10690","name":"Hampton Rd After Martha St","lat":-32.0656239136,"lon":115.757183583},{"id":"10691","name":"Hampton Rd After Wray Av","lat":-32.06138,"lon":115.756711111111},{"id":"10692","name":"Hampton Rd After Alma St","lat":-32.0573325451,"lon":115.755375026},{"id":"10693","name":"Hampton Rd Before Knutsford St","lat":-32.0546005555556,"lon":115.754789444444},{"id":"10694","name":"Marmion St After Glyde St","lat":-32.0472222214,"lon":115.759607043},{"id":"10695","name":"Marmion St After King St","lat":-32.0471801337,"lon":115.762719348},{"id":"10696","name":"Marmion St After Stirling Hwy","lat":-32.0471436016,"lon":115.765263517},{"id":"10697","name":"Marmion St After Moss St","lat":-32.0471088706,"lon":115.767873324},{"id":"10698","name":"Marmion St After Allen St","lat":-32.0470788888889,"lon":115.770488888889},{"id":"10699","name":"Marmion St After Fortescue St","lat":-32.0470464965,"lon":115.77318218},{"id":"10700","name":"Marmion St Before Petra St","lat":-32.047013683,"lon":115.775835617},{"id":"10701","name":"Marmion St Before Carrington St","lat":-32.0469698454,"lon":115.778358758},{"id":"10702","name":"Marmion St After Carrington St","lat":-32.0469527897,"lon":115.781248017},{"id":"10703","name":"Marmion St Before Mckimmie Rd","lat":-32.0469097685,"lon":115.784327993},{"id":"10704","name":"Marmion St Before Baal St","lat":-32.0468834497,"lon":115.787383849},{"id":"10705","name":"Marmion St Before Justinian St","lat":-32.0468494444444,"lon":115.790438333333},{"id":"10706","name":"Marmion St Before Stock Rd","lat":-32.0468163455,"lon":115.792996289},{"id":"10707","name":"Marmion St After Maddox Cr","lat":-32.0460937342,"lon":115.795234389},{"id":"10708","name":"Marmion St Before Hornsby St","lat":-32.0448838367,"lon":115.796438068},{"id":"10709","name":"Marmion St After Redwood Cr","lat":-32.0437635287,"lon":115.79976736},{"id":"10711","name":"Marmion St After Thorn St","lat":-32.042459496,"lon":115.801988783},{"id":"10712","name":"Marmion St After Kirkland Pl","lat":-32.0409375254,"lon":115.805340831},{"id":"10713","name":"Marmion St Before Rome Rd","lat":-32.0401754418,"lon":115.808072016},{"id":"10714","name":"Marmion St Before Hayward St","lat":-32.0399419771,"lon":115.810875651},{"id":"10715","name":"Marmion St After Aiken St","lat":-32.0398864601,"lon":115.814035042},{"id":"10716","name":"Marmion St After Evershed St","lat":-32.0398765545,"lon":115.817433672},{"id":"10717","name":"Marmion St Before Marr St","lat":-32.0398562544,"lon":115.820736801},{"id":"10718","name":"Marmion St Before Aldous Pl","lat":-32.0398091571,"lon":115.824778432},{"id":"10719","name":"Marmion St Before Marcus Av","lat":-32.0393151432,"lon":115.82722374},{"id":"10720","name":"Marmion St Melville Aquatic Centre","lat":-32.0385749243,"lon":115.828982821},{"id":"10721","name":"Marmion St Before Davy St","lat":-32.0371304884,"lon":115.83232488},{"id":"10722","name":"Booragoon Bus Stn Stand A2","lat":-32.0362238888889,"lon":115.836702777778},{"id":"10723","name":"Booragoon Bus Stn Stand A1","lat":-32.0362505555556,"lon":115.837043888889},{"id":"10724","name":"Marmion St Melville Aquatic Centre","lat":-32.0386810167,"lon":115.829157556},{"id":"10725","name":"Marmion St After Marcus Av","lat":-32.0394061463,"lon":115.827482452},{"id":"10726","name":"Marmion St Before Norma Rd","lat":-32.0399682682,"lon":115.824840357},{"id":"10727","name":"Marmion St After Norma Rd","lat":-32.0399650811,"lon":115.820872613},{"id":"10728","name":"Marmion St Before North Lake Rd","lat":-32.0399808118,"lon":115.817542567},{"id":"10729","name":"Marmion St After North Lake Rd","lat":-32.040010362,"lon":115.814998569},{"id":"10731","name":"Marmion St After Hayward St","lat":-32.0400375299,"lon":115.810986798},{"id":"10732","name":"Marmion St After Rome Rd","lat":-32.0405566666666,"lon":115.80753},{"id":"10733","name":"Marmion St Before Potts St","lat":-32.0413385895,"lon":115.804297512},{"id":"10734","name":"Marmion St Before Thorn St","lat":-32.0425508132,"lon":115.802057034},{"id":"10735","name":"Marmion St After Challenger Pl","lat":-32.0437988531,"lon":115.800014581},{"id":"10736","name":"Marmion St Before Hornsby St","lat":-32.0446769352,"lon":115.797076765},{"id":"10737","name":"Marmion St Before Maddox Cr","lat":-32.0463987408,"lon":115.795180099},{"id":"10738","name":"Marmion St After Stock Rd","lat":-32.0469351914,"lon":115.792824694},{"id":"10739","name":"Marmion St Before Justinian St","lat":-32.0469541187,"lon":115.791075478},{"id":"10740","name":"Marmion St Before Baal St","lat":-32.0469880845,"lon":115.788118772},{"id":"10741","name":"Marmion St Before Mckimmie Rd","lat":-32.0470276314,"lon":115.785279059},{"id":"10742","name":"Marmion St After Adrian St","lat":-32.0470659775,"lon":115.781298949},{"id":"10743","name":"Marmion St After Carrington St","lat":-32.0471916666667,"lon":115.778692222222},{"id":"10744","name":"Marmion St After Petra St","lat":-32.0472194444445,"lon":115.775830555556},{"id":"10745","name":"Marmion St After Wilkinson St","lat":-32.0472598299,"lon":115.772755028},{"id":"10746","name":"Marmion St After Dalgety St","lat":-32.0472848298,"lon":115.770629673},{"id":"10747","name":"Marmion St Before Onslow St","lat":-32.0473265458,"lon":115.768377106},{"id":"10748","name":"Marmion St Before Stirling Hwy","lat":-32.0473638577,"lon":115.765146723},{"id":"10749","name":"Marmion St After Stirling Hwy","lat":-32.0473916484,"lon":115.762613354},{"id":"10750","name":"Marmion St After Chalmers St","lat":-32.047433046,"lon":115.759536744},{"id":"10752","name":"Lefroy Rd After Hale St","lat":-32.0675651508,"lon":115.760491848},{"id":"10753","name":"Lefroy Rd After Sea View St","lat":-32.0675083172,"lon":115.763590542},{"id":"10754","name":"Lefroy Rd After Caesar St","lat":-32.0672166666666,"lon":115.769643888889},{"id":"10755","name":"Lefroy Rd Before Fifth Av","lat":-32.067131209,"lon":115.771772629},{"id":"10758","name":"Lefroy Rd After Fifth Av","lat":-32.0672392676,"lon":115.77185885},{"id":"10759","name":"Lefroy Rd Fremantle College Stand 1","lat":-32.0674633333333,"lon":115.768235},{"id":"10760","name":"Lefroy Rd After Longford Rd","lat":-32.0676038888889,"lon":115.763575555556},{"id":"10761","name":"Lefroy Rd After Livingstone St","lat":-32.0676467749,"lon":115.760659866},{"id":"10762","name":"Clontarf Rd After Newmarket St","lat":-32.0756011111111,"lon":115.762834444444},{"id":"10763","name":"Clontarf Rd After Mather Rd","lat":-32.0753010427,"lon":115.766458154},{"id":"10764","name":"Clontarf Rd Between Mather Rd And Parnell Rd","lat":-32.0756183333334,"lon":115.768533333333},{"id":"10765","name":"Clontarf Rd Before Parnell Rd","lat":-32.0756393551,"lon":115.772277663},{"id":"10766","name":"Clontarf Rd Before Tuart St","lat":-32.0756742793,"lon":115.776188124},{"id":"10767","name":"Clontarf Rd After Tuart St","lat":-32.0756953905,"lon":115.778668163},{"id":"10768","name":"Clontarf Rd After Carrington St","lat":-32.0757767481,"lon":115.778880267},{"id":"10769","name":"Clontarf Rd Before York St","lat":-32.0757477777778,"lon":115.775340555556},{"id":"10770","name":"Clontarf Rd After Parnell Rd","lat":-32.0757343299,"lon":115.771689244},{"id":"10771","name":"Clontarf Rd Between Parnell Rd And Mather Rd","lat":-32.07573,"lon":115.769612777778},{"id":"10772","name":"Clontarf Rd Before Mather Rd","lat":-32.0753188888889,"lon":115.766216111111},{"id":"10773","name":"Clontarf Rd Before Hampton Rd","lat":-32.0756994444445,"lon":115.762723888889},{"id":"10774","name":"Carrington St Before Forrest Rd","lat":-32.0841233333333,"lon":115.777133333333},{"id":"10775","name":"Carrington St Before Mortlock St","lat":-32.0805421012,"lon":115.778396059},{"id":"10776","name":"Carrington St Before Jeffery St","lat":-32.0737127877,"lon":115.779724904},{"id":"10777","name":"Carrington St Before Rennie Cr","lat":-32.0695448597,"lon":115.779720279},{"id":"10778","name":"Carrington St Before South St","lat":-32.0639091722,"lon":115.779660959},{"id":"10779","name":"Carrington St Before Hope St","lat":-32.0585825221,"lon":115.779576801},{"id":"10780","name":"Carrington St Fremantle Cemetery","lat":-32.0522994444444,"lon":115.779608333333},{"id":"10781","name":"Carrington St After Hope St","lat":-32.0588908704,"lon":115.779744851},{"id":"10782","name":"Carrington St After South St","lat":-32.06406,"lon":115.779828888889},{"id":"10783","name":"Carrington St Before Rennie Cr","lat":-32.0687012959,"lon":115.779868668},{"id":"10784","name":"Carrington St After Jeffery St","lat":-32.0732511219,"lon":115.779912091},{"id":"10785","name":"Carrington St After Mortlock St","lat":-32.0807055555555,"lon":115.778468888889},{"id":"10786","name":"Carrington St Before Rockingham Rd","lat":-32.0843993429,"lon":115.777146652},{"id":"10787","name":"Collick St Before Holmes Pl","lat":-32.0688815428,"lon":115.789331602},{"id":"10788","name":"Collick St After Joslin St","lat":-32.0656483333333,"lon":115.790305},{"id":"10789","name":"Collick St After Chadwick St","lat":-32.0639427777778,"lon":115.790786111111},{"id":"10790","name":"Collick St After South St","lat":-32.0639516666666,"lon":115.790896666667},{"id":"10791","name":"Collick St After Doust St","lat":-32.0656344444445,"lon":115.790394444444},{"id":"10792","name":"Collick St After Bennewith St","lat":-32.0683251664,"lon":115.789593489},{"id":"10794","name":"Alfred Rd Before Stirling Hwy","lat":-32.031025312,"lon":115.753013509},{"id":"10795","name":"Alfred Rd After Stirling Hwy","lat":-32.0308138888889,"lon":115.753827777778},{"id":"10797","name":"Rule St After Fay St","lat":-32.0318366666667,"lon":115.756027777778},{"id":"10799","name":"Rule St After Ainslie Rd","lat":-32.0319927777778,"lon":115.755975},{"id":"10801","name":"Harvest Rd After Stirling Hwy","lat":-32.0344594444445,"lon":115.754619444444},{"id":"10803","name":"Harvest Rd Before Stirling Hwy","lat":-32.034296088,"lon":115.75497242},{"id":"10806","name":"Oldham Cr Before Sumpton St","lat":-32.0709694444445,"lon":115.788216666667},{"id":"10808","name":"Oldham Cr Before Grigg Pl","lat":-32.0721484333,"lon":115.784564938},{"id":"10810","name":"Oldham Cr After Paget St","lat":-32.0721079668,"lon":115.781815536},{"id":"10811","name":"Oldham Cr After Grigg Pl","lat":-32.0720734591,"lon":115.784750763},{"id":"10812","name":"Oldham Cr After Sumpton St","lat":-32.0709416917,"lon":115.788090484},{"id":"10814","name":"Paget St After South St","lat":-32.0641472814,"lon":115.781314005},{"id":"10816","name":"Paget St Before Farrell St","lat":-32.0681124902,"lon":115.781349981},{"id":"10817","name":"Paget St Before Nicholas Cr","lat":-32.0699733333333,"lon":115.781397222222},{"id":"10819","name":"Paget St After Lynn St","lat":-32.0714873211,"lon":115.781310115},{"id":"10820","name":"Paget St Before Rennie Cr","lat":-32.0693169045,"lon":115.781280442},{"id":"10821","name":"Paget St Before Rennie Cr","lat":-32.067483724,"lon":115.781249977},{"id":"10822","name":"Paget St Before South St","lat":-32.0641583325,"lon":115.781194968},{"id":"10823","name":"Leach Hwy After Maddox Cr","lat":-32.0486012882,"lon":115.796029223},{"id":"10824","name":"Leach Hwy After Sergeant Rd","lat":-32.0483186319,"lon":115.798243018},{"id":"10825","name":"Leach Hwy After Redwood Cr","lat":-32.047898328,"lon":115.801452032},{"id":"10826","name":"Leach Hwy Before Joiner St","lat":-32.0472724054,"lon":115.806177535},{"id":"10827","name":"Leach Hwy After Joiner St","lat":-32.047061312,"lon":115.807983237},{"id":"10828","name":"Leach Hwy After Wheyland St","lat":-32.0466407598,"lon":115.811228698},{"id":"10829","name":"Leach Hwy Before North Lake Rd","lat":-32.0462940078,"lon":115.813932708},{"id":"10830","name":"Leach Hwy After North Lake Rd","lat":-32.0460120034,"lon":115.817884334},{"id":"10831","name":"Leach Hwy After Norma Rd","lat":-32.0459873068,"lon":115.823582515},{"id":"10832","name":"Leach Hwy After Winthrop Dr","lat":-32.0459594444445,"lon":115.826335},{"id":"10833","name":"Leach Hwy After Marcus Av","lat":-32.0459276248,"lon":115.829937684},{"id":"10834","name":"Leach Hwy Before Riseley St","lat":-32.0459038888889,"lon":115.832760555556},{"id":"10835","name":"Leach Hwy After Riseley St","lat":-32.0458604906,"lon":115.836894177},{"id":"10836","name":"Leach Hwy Before Aldridge Rd","lat":-32.0458657564,"lon":115.839805155},{"id":"10837","name":"Leach Hwy After Murdoch Dr","lat":-32.0459479291,"lon":115.844539985},{"id":"10839","name":"Leach Hwy After Pulo Rd","lat":-32.0466616666667,"lon":115.857901111111},{"id":"10840","name":"Leach Hwy After Webb St","lat":-32.0452342471,"lon":115.868103795},{"id":"10841","name":"Leach Hwy After Karel Av","lat":-32.0420730177,"lon":115.872664765},{"id":"10842","name":"Leach Hwy After Barbican St","lat":-32.0277579839,"lon":115.893330765},{"id":"10844","name":"Leach Hwy After Centenary Av","lat":-32.0225137973,"lon":115.90686253},{"id":"10845","name":"Leach Hwy After Bungaree Rd","lat":-32.0187879487,"lon":115.912463731},{"id":"10846","name":"Leach Hwy Before Braibrise Rd","lat":-32.0168861111111,"lon":115.914773888889},{"id":"10847","name":"Leach Hwy After Braibrise Rd","lat":-32.0156705555556,"lon":115.916253333333},{"id":"10848","name":"Leach Hwy After Denby St","lat":-32.0151009609,"lon":115.917384962},{"id":"10849","name":"Leach Hwy After Braibrise Rd","lat":-32.0171047036,"lon":115.914973101},{"id":"10851","name":"Leach Hwy After Grayson Ct","lat":-32.0225005555556,"lon":115.908096111111},{"id":"10853","name":"Leach Hwy After Tudor Av","lat":-32.0280095934,"lon":115.893513679},{"id":"10854","name":"Leach Hwy Before Karel Av","lat":-32.0419220993,"lon":115.873468351},{"id":"10855","name":"Leach Hwy Before Webb St","lat":-32.0453489854,"lon":115.868580307},{"id":"10856","name":"Leach Hwy Before Bull Creek Dr","lat":-32.0474301512,"lon":115.861431553},{"id":"10857","name":"Leach Hwy Before Amur Pl","lat":-32.0462825034,"lon":115.849580901},{"id":"10858","name":"Leach Hwy Before Murdoch Dr","lat":-32.046226341,"lon":115.844857337},{"id":"10859","name":"Leach Hwy After Murdoch Dr","lat":-32.0461744444444,"lon":115.841528333333},{"id":"10860","name":"Leach Hwy After Riseley St","lat":-32.0461685342,"lon":115.835166125},{"id":"10861","name":"Leach Hwy After Riseley St","lat":-32.0461850025,"lon":115.832957571},{"id":"10862","name":"Leach Hwy Ross Park","lat":-32.046209447,"lon":115.82958592},{"id":"10863","name":"Leach Hwy After Winthrop Dr","lat":-32.0462493427,"lon":115.824927643},{"id":"10864","name":"Leach Hwy After Winthrop Dr","lat":-32.0462782795,"lon":115.821602278},{"id":"10865","name":"Leach Hwy Before North Lake Rd","lat":-32.046310888,"lon":115.81779542},{"id":"10866","name":"Leach Hwy After North Lake Rd","lat":-32.0464681804,"lon":115.814895422},{"id":"10867","name":"Leach Hwy Before Wheyland St","lat":-32.0468355034,"lon":115.811790308},{"id":"10868","name":"Leach Hwy After Wheyland St","lat":-32.0472041955,"lon":115.808925935},{"id":"10869","name":"Leach Hwy Before Winnacott St","lat":-32.0476344284,"lon":115.805586848},{"id":"10870","name":"Leach Hwy Before Bassett St","lat":-32.048079221,"lon":115.80218316},{"id":"10871","name":"Leach Hwy Before Rudge St","lat":-32.0485391185,"lon":115.79861787},{"id":"10872","name":"Leach Hwy Before Webber St","lat":-32.048871717,"lon":115.795887508},{"id":"10873","name":"High St After Chalmers St","lat":-32.050803888,"lon":115.759723809},{"id":"10874","name":"High St After Swanbourne St","lat":-32.0512588397,"lon":115.756995725},{"id":"10875","name":"High St After Stirling St","lat":-32.0526699507,"lon":115.752482009},{"id":"10876","name":"High St After Queen St","lat":-32.0533266666667,"lon":115.749903888889},{"id":"10877","name":"High St After Parry St","lat":-32.0523537831,"lon":115.753102339},{"id":"10878","name":"High St After Ord St","lat":-32.0511820551,"lon":115.756875411},{"id":"10879","name":"High St After Chalmers St","lat":-32.0506614072,"lon":115.760665241},{"id":"10880","name":"Douro Rd After Thomas St","lat":-32.0739827777778,"lon":115.755789444444},{"id":"10882","name":"Douro Rd Before Chester St","lat":-32.0738733333333,"lon":115.755451111111},{"id":"10890","name":"Preston Point Rd Before Bolton St","lat":-32.0391488888889,"lon":115.764313888889},{"id":"10891","name":"Preston Point Rd After Aldgate Pl","lat":-32.0368238888889,"lon":115.764468333333},{"id":"10892","name":"Preston Point Rd After Fraser St","lat":-32.0343313288,"lon":115.764677721},{"id":"10893","name":"Preston Point Rd After Durdham Cr","lat":-32.0302355807,"lon":115.779176059},{"id":"10894","name":"Preston Point Rd After Malsbury St","lat":-32.0300916141,"lon":115.781588867},{"id":"10895","name":"Preston Point Rd After Bristol Av","lat":-32.0299366666667,"lon":115.784175},{"id":"10896","name":"Preston Point Rd After Foss St","lat":-32.0300016666667,"lon":115.784795555556},{"id":"10897","name":"Preston Point Rd Before Malsbury St","lat":-32.030209392,"lon":115.78154326},{"id":"10898","name":"Preston Point Rd After Phipps St","lat":-32.0303981643,"lon":115.77884619},{"id":"10899","name":"Preston Point Rd After Pier St","lat":-32.0344396429,"lon":115.764767759},{"id":"10900","name":"Preston Point Rd After Wolsely Rd","lat":-32.0373011111111,"lon":115.764575555556},{"id":"10901","name":"Preston Point Rd After Bolton St","lat":-32.0400272222223,"lon":115.764316111111},{"id":"10902","name":"Archibald St Before Antill St","lat":-32.0532294444445,"lon":115.804471666667},{"id":"10903","name":"Archibald St After Winnacott St","lat":-32.0531917654,"lon":115.806744179},{"id":"10904","name":"Archibald St After Worley St","lat":-32.0531755354,"lon":115.809042936},{"id":"10905","name":"Archibald St After Wheyland St","lat":-32.0531877777778,"lon":115.811805555556},{"id":"10906","name":"Archibald St After Stacey St","lat":-32.0531658574,"lon":115.814155826},{"id":"10907","name":"Archibald St After North Lake Rd","lat":-32.0532909111,"lon":115.815162184},{"id":"10908","name":"Archibald St After Tedrake St","lat":-32.053329496,"lon":115.81187006},{"id":"10909","name":"Archibald St Before Ellison St","lat":-32.0533372469,"lon":115.809640311},{"id":"10910","name":"Archibald St Before Cummins St","lat":-32.053351464,"lon":115.807316514},{"id":"10911","name":"Archibald St After Winnacott St","lat":-32.0533626685,"lon":115.805323544},{"id":"10912","name":"Harfoot St After Archibald St","lat":-32.0528866666667,"lon":115.802693888889},{"id":"10913","name":"Amherst St After High St","lat":-32.0512320665,"lon":115.762344962},{"id":"10914","name":"Amherst St After Knutsford St","lat":-32.0561411111111,"lon":115.762362222222},{"id":"10916","name":"Amherst St After Stevens St","lat":-32.0560622222222,"lon":115.762253888889},{"id":"10918","name":"Amherst St Before High St","lat":-32.0511911572,"lon":115.762201705},{"id":"10919","name":"Watkins St After Edmund St","lat":-32.0599210603,"lon":115.763616644},{"id":"10921","name":"Watkins St Before Wiluna Av","lat":-32.0596590899,"lon":115.76744645},{"id":"10922","name":"Watkins St Before Nannine Av","lat":-32.0595903509,"lon":115.769832049},{"id":"10923","name":"Watkins St Before Yalgoo Av","lat":-32.0595808065,"lon":115.772420059},{"id":"10925","name":"Watkins St After Wongan Av","lat":-32.0595797992,"lon":115.776029941},{"id":"10926","name":"Watkins St Before Carrington St","lat":-32.0595198973,"lon":115.778992949},{"id":"10927","name":"Watkins St After Carrington St","lat":-32.0596509584,"lon":115.778777396},{"id":"10928","name":"Watkins St After Minilya Av","lat":-32.0596853557,"lon":115.776150807},{"id":"10929","name":"Watkins St After Newbold St","lat":-32.0597089597,"lon":115.773412583},{"id":"10930","name":"Watkins St After Nannine Av","lat":-32.0598197747,"lon":115.769548871},{"id":"10931","name":"Watkins St After Wiluna Av","lat":-32.0598869714,"lon":115.767309944},{"id":"10932","name":"Watkins St Before Wood St","lat":-32.0601415103,"lon":115.76339896},{"id":"10934","name":"Winterfold Rd After Hebbard St","lat":-32.0746458135,"lon":115.796475029},{"id":"10937","name":"Winterfold Rd After Weston Wy","lat":-32.0746038888889,"lon":115.809241666667},{"id":"10938","name":"Winterfold Rd Before Doherty Rd","lat":-32.0745930105,"lon":115.813393277},{"id":"10939","name":"Winterfold Rd Before Anglesey Dr","lat":-32.0747187623,"lon":115.812399023},{"id":"10942","name":"Winterfold Rd Before Thorsager St","lat":-32.0748514133,"lon":115.797148106},{"id":"10943","name":"Winterfold Rd After Letchford St","lat":-32.0748294815,"lon":115.793399161},{"id":"10944","name":"Winterfold Rd Before Aberle St","lat":-32.074767405,"lon":115.789734357},{"id":"10946","name":"Winterfold Rd After Butson St","lat":-32.0747854795,"lon":115.785134167},{"id":"10947","name":"Winterfold Rd After Instone St","lat":-32.0747966658,"lon":115.782353621},{"id":"10948","name":"East St Before Holland St","lat":-32.0500283333333,"lon":115.75812},{"id":"10950","name":"Edmund St Before Watkins St","lat":-32.0592589341,"lon":115.76150933},{"id":"10951","name":"Edmund St After Watkins St","lat":-32.0594634824,"lon":115.761413507},{"id":"10952","name":"Bennewith St After Collick St","lat":-32.0673430026,"lon":115.79025983},{"id":"10953","name":"Bennewith St After Tonkin Rd","lat":-32.0674794444445,"lon":115.790532777778},{"id":"10954","name":"Boon St After Stock Rd","lat":-32.0523574514,"lon":115.794286897},{"id":"10955","name":"Boon St Before Stock Rd","lat":-32.0524638497,"lon":115.793934078},{"id":"10956","name":"Bromley Rd After Bennewith St","lat":-32.0664638471,"lon":115.792179992},{"id":"10957","name":"Bromley Rd After Doust St","lat":-32.0661361834,"lon":115.792404158},{"id":"10959","name":"Doust St After Collick St","lat":-32.0651819706,"lon":115.791123505},{"id":"10960","name":"Doust St After Bromley Rd","lat":-32.0654039642,"lon":115.791783008},{"id":"10961","name":"Harris St After Preston Point Rd","lat":-32.0293922222222,"lon":115.787140555556},{"id":"10963","name":"Harris St Before Pembroke St","lat":-32.0273122222222,"lon":115.787151666667},{"id":"10964","name":"Harris St Before Beach St","lat":-32.0245952309,"lon":115.787112624},{"id":"10965","name":"Harris St After Pembroke St","lat":-32.0267544444445,"lon":115.787222777778},{"id":"10967","name":"Harris St After Wrexham St","lat":-32.0292708654,"lon":115.787230094},{"id":"10968","name":"Hodge St Before Steel St","lat":-32.0508622222222,"lon":115.797310555556},{"id":"10974","name":"Ladner St After South St","lat":-32.0641430289,"lon":115.798960958},{"id":"10975","name":"Ladner St Before Peel Rd","lat":-32.0607909789,"lon":115.798957587},{"id":"10976","name":"Ladner St After Peel Rd","lat":-32.0607575438,"lon":115.799074946},{"id":"10977","name":"Ladner St After Roper St","lat":-32.0646138888889,"lon":115.799088888889},{"id":"10978","name":"Lucas St After Bartlett St","lat":-32.0530127777778,"lon":115.796295555556},{"id":"10979","name":"Lucas St After Boon St","lat":-32.0526678031,"lon":115.796010943},{"id":"10980","name":"Milroy St After Lucas St","lat":-32.0548855555555,"lon":115.799465555556},{"id":"10981","name":"Marchant Rd Seton College","lat":-32.0738861111111,"lon":115.792783333333},{"id":"10982","name":"Mccombe Av After Pioneer Ct","lat":-32.0735977777778,"lon":115.798769444444},{"id":"10983","name":"Mccombe Av After Mckenzie Rd","lat":-32.0711378766,"lon":115.800786458},{"id":"10984","name":"Mccombe Av After Petterson Av","lat":-32.0697226142,"lon":115.801693727},{"id":"10985","name":"Mccombe Av Before Bradbury Wy","lat":-32.0663857832,"lon":115.801257643},{"id":"10986","name":"Mccombe Av After South St","lat":-32.0664958086,"lon":115.801359122},{"id":"10987","name":"Mccombe Av After Bradley Ct","lat":-32.0695975002,"lon":115.80184234},{"id":"10988","name":"Mccombe Av Before Mckenzie Rd","lat":-32.0716355309,"lon":115.800392588},{"id":"10989","name":"Mccombe Av Before Pioneer Ct","lat":-32.0738035854,"lon":115.798906116},{"id":"10991","name":"Milroy St After Bastian Pl","lat":-32.0550498472,"lon":115.799404292},{"id":"10993","name":"Harfoot St After Milroy St","lat":-32.0529383333333,"lon":115.802897777778},{"id":"10994","name":"North Lake Rd After Kitchener Rd","lat":-32.03942,"lon":115.815806111111},{"id":"10995","name":"North Lake Rd Before Mccoy St","lat":-32.0424923883,"lon":115.815837638},{"id":"10996","name":"North Lake Rd After Leach Hwy","lat":-32.0469205712,"lon":115.815936785},{"id":"10997","name":"North Lake Rd Before Charsley St","lat":-32.0499378558,"lon":115.815985463},{"id":"10998","name":"North Lake Rd Before Farrington Rd","lat":-32.0752970202,"lon":115.816360864},{"id":"10999","name":"North Lake Rd After Bibra Dr","lat":-32.1039422683,"lon":115.825039962},{"id":"11000","name":"North Lake Rd - Lakes Shopping Ctr","lat":-32.1077388632,"lon":115.827541326},{"id":"11001","name":"North Lake Rd After Elderberry Dr","lat":-32.1101038888889,"lon":115.831027777778},{"id":"11002","name":"North Lake Rd After Osprey Dr","lat":-32.1132901951,"lon":115.833772799},{"id":"11004","name":"North Lake Rd After Berrigan Dr","lat":-32.1158061226,"lon":115.837752302},{"id":"11005","name":"North Lake Rd After Rimmington Ct","lat":-32.1167995055,"lon":115.839614007},{"id":"11006","name":"North Lake Rd After Hammond Rd","lat":-32.1183465916,"lon":115.842076038},{"id":"11007","name":"North Lake Rd After Semple Ct","lat":-32.1196266666666,"lon":115.844945555556},{"id":"11008","name":"North Lake Rd After Poletti Rd","lat":-32.1202666666667,"lon":115.845832777778},{"id":"11009","name":"North Lake Rd After Semple Ct","lat":-32.1187727655,"lon":115.842321942},{"id":"11010","name":"North Lake Rd Before Berrigan Dr","lat":-32.1157993366,"lon":115.837248586},{"id":"11011","name":"North Lake Rd After Osprey Dr","lat":-32.1121564081,"lon":115.832444752},{"id":"11012","name":"North Lake Rd After Elderberry Dr","lat":-32.109425505,"lon":115.829674597},{"id":"11013","name":"North Lake Rd Before Winterfold Rd","lat":-32.0753946458,"lon":115.816028124},{"id":"11014","name":"North Lake Rd Before Le Souef Dr","lat":-32.0621691933,"lon":115.814593754},{"id":"11015","name":"North Lake Rd After Archibald St","lat":-32.0526547466,"lon":115.815717175},{"id":"11016","name":"North Lake Rd After Charsley St","lat":-32.0503638888889,"lon":115.815702222222},{"id":"11017","name":"North Lake Rd Before Moorhouse St","lat":-32.0473669442,"lon":115.815669312},{"id":"11018","name":"North Lake Rd After Mccoy St","lat":-32.0426461111111,"lon":115.815603888889},{"id":"11019","name":"North Lake Rd After Marmion St","lat":-32.0391491943,"lon":115.815577679},{"id":"11020","name":"Ord St Fremantle Park","lat":-32.0505066666667,"lon":115.754460555556},{"id":"11021","name":"Ord St Fremantle Arts And Leisure Centres","lat":-32.0477856316,"lon":115.753453523},{"id":"11024","name":"Sainsbury Rd Before Carrington St","lat":-32.0549421253,"lon":115.781201727},{"id":"11025","name":"Sainsbury Rd After Carrington St","lat":-32.0548587476,"lon":115.781227302},{"id":"11026","name":"Sainsbury Rd Before Forsyth St","lat":-32.0548594444444,"lon":115.790989444444},{"id":"11027","name":"Sainsbury Rd After Forsyth St","lat":-32.0549366081,"lon":115.790839388},{"id":"11033","name":"Stock Rd After Leach Hwy","lat":-32.0500981608,"lon":115.793668855},{"id":"11034","name":"Stock Rd Before Boon St","lat":-32.0520288821,"lon":115.793611323},{"id":"11036","name":"Stock Rd After Sainsbury Rd","lat":-32.0553211111111,"lon":115.793643888889},{"id":"11039","name":"Stock Rd Before Rockingham Rd","lat":-32.1340005555555,"lon":115.788915},{"id":"11041","name":"Stock Rd Before Rockingham Rd","lat":-32.1363399624,"lon":115.789486861},{"id":"11046","name":"Stock Rd Before Stockdale Rd","lat":-32.0573478459,"lon":115.793436438},{"id":"11047","name":"Stock Rd Before Sainsbury Rd","lat":-32.0553618955,"lon":115.79341412},{"id":"11048","name":"Stock Rd Before Boon St","lat":-32.0528083333334,"lon":115.793389444444},{"id":"11057","name":"Moreing Rd Santa Maria College Stand 2","lat":-32.01885,"lon":115.794751666667},{"id":"11058","name":"Moreing Rd Santa Maria College Stand 1","lat":-32.0190872222222,"lon":115.794745555556},{"id":"11062","name":"Moreing Rd After Hough Rd","lat":-32.0256543017,"lon":115.794802634},{"id":"11064","name":"Moreing Rd Before Hough Rd","lat":-32.0249234743,"lon":115.794711926},{"id":"11065","name":"Wichmann Rd After Cawston Rd","lat":-32.0236657361,"lon":115.797602993},{"id":"11066","name":"Wichmann Rd Before Lawlor Rd","lat":-32.0246485397,"lon":115.799364793},{"id":"11067","name":"Wichmann Rd After Galloway St","lat":-32.0259024803,"lon":115.801686326},{"id":"11068","name":"Wichmann Rd After Calpin Cr","lat":-32.0271452191,"lon":115.803852324},{"id":"11069","name":"Wichmann Rd Before Bricknell Rd","lat":-32.0290727519,"lon":115.807313495},{"id":"11071","name":"Wichmann Rd After Bricknell Rd","lat":-32.0291174672,"lon":115.807176237},{"id":"11072","name":"Wichmann Rd After Haig Rd","lat":-32.027600891,"lon":115.804449921},{"id":"11073","name":"Wichmann Rd Before Galloway St","lat":-32.0259954253,"lon":115.801500615},{"id":"11074","name":"Wichmann Rd Before Lawlor Rd","lat":-32.0250237469,"lon":115.79986949},{"id":"11075","name":"Wichmann Rd After Davidson Rd","lat":-32.0238572312,"lon":115.797728306},{"id":"11076","name":"Hislop Rd After Canning Hwy","lat":-32.03142,"lon":115.809253888889},{"id":"11077","name":"Hislop Rd Before Canning Hwy","lat":-32.0308022222222,"lon":115.809393333333},{"id":"11078","name":"View Tce Before Easton St","lat":-32.0327461111111,"lon":115.769407222222},{"id":"11079","name":"View Tce Before Penshurst St","lat":-32.0328027777778,"lon":115.772406666667},{"id":"11080","name":"View Tce After Clayton St","lat":-32.032805,"lon":115.775483888889},{"id":"11081","name":"View Tce Before Westbury Cr","lat":-32.0328092372,"lon":115.777264294},{"id":"11082","name":"Westbury Cr Before View Tce","lat":-32.0326455555556,"lon":115.777538333333},{"id":"11083","name":"View Tce After Petra St","lat":-32.0328838888889,"lon":115.775591666667},{"id":"11084","name":"View Tce After Penshurst St","lat":-32.0328401407,"lon":115.772087211},{"id":"11085","name":"View Tce After Easton St","lat":-32.0328122222222,"lon":115.769519444444},{"id":"11086","name":"Parker St After Pier St","lat":-32.0331672222222,"lon":115.766768888889},{"id":"11087","name":"Parker St After View Tce","lat":-32.0331233333333,"lon":115.766868333333},{"id":"11088","name":"Waddell Rd After Coldwells St","lat":-32.0247815343,"lon":115.79215298},{"id":"11090","name":"York St Before Jean St","lat":-32.0748519626,"lon":115.774250557},{"id":"11091","name":"York St Before Warren St","lat":-32.0721438888889,"lon":115.774232777778},{"id":"11092","name":"York St Before Michael St","lat":-32.0686148395,"lon":115.774193717},{"id":"11093","name":"York St After Lefroy Rd","lat":-32.0676087632,"lon":115.774300372},{"id":"11095","name":"York St Before Jeffery St","lat":-32.0725024561,"lon":115.774349851},{"id":"11096","name":"York St Before Jean St","lat":-32.0743129539,"lon":115.774339716},{"id":"11097","name":"Kitchener Rd After North Lake Rd","lat":-32.0362888888889,"lon":115.81656},{"id":"11098","name":"Kitchener Rd Before Welby Pl","lat":-32.0362697802,"lon":115.81861443},{"id":"11099","name":"Kitchener Rd After Cormack Rd","lat":-32.0362440692,"lon":115.821445722},{"id":"11100","name":"Kitchener Rd After Cormack Rd","lat":-32.0363211111111,"lon":115.820662222222},{"id":"11101","name":"Kitchener Rd Before Bolas Ct","lat":-32.0363397398,"lon":115.818296242},{"id":"11102","name":"Kitchener Rd Before North Lake Rd","lat":-32.0363585839,"lon":115.816168675},{"id":"11103","name":"Norma Rd After Stirk Rd","lat":-32.0339524546,"lon":115.822203986},{"id":"11105","name":"Davy St After Barnard St","lat":-32.0334654842,"lon":115.824840775},{"id":"11106","name":"Davy St After Melson Wy","lat":-32.0334172222222,"lon":115.829676666667},{"id":"11107","name":"Davy St Before Marmion St","lat":-32.0356561111111,"lon":115.832282222222},{"id":"11108","name":"Davy St After Marmion St","lat":-32.0354461111111,"lon":115.832098888889},{"id":"11109","name":"Davy St Before Melson Wy","lat":-32.0335155555555,"lon":115.829569444444},{"id":"11110","name":"Davy St Before Clements Rd","lat":-32.0335438888889,"lon":115.825903333333},{"id":"11111","name":"Norma Rd After Davy St","lat":-32.0342711111111,"lon":115.822289444444},{"id":"11112","name":"Riseley St Before Kearns Cr","lat":-32.0210303731,"lon":115.834697052},{"id":"11113","name":"Riseley St After Drew Rd","lat":-32.0242477777778,"lon":115.8371},{"id":"11114","name":"Riseley St After Portree Wy","lat":-32.0265696506,"lon":115.83770598},{"id":"11115","name":"Riseley St Before Glencoe Rd","lat":-32.0288105555555,"lon":115.837410555556},{"id":"11116","name":"Riseley St Before Coomoora Rd","lat":-32.0312521568,"lon":115.83802412},{"id":"11117","name":"Riseley St After Marmion St","lat":-32.0385497184,"lon":115.837916222},{"id":"11118","name":"Riseley St Before Worthington Rd","lat":-32.0410222222222,"lon":115.837612222222},{"id":"11119","name":"Riseley St After Allerton Wy","lat":-32.0434294444444,"lon":115.836218888889},{"id":"11120","name":"Riseley St After Leach Hwy","lat":-32.0451732042,"lon":115.835693601},{"id":"11121","name":"Riseley St After Allerton Wy","lat":-32.0426498665,"lon":115.836425288},{"id":"11122","name":"Riseley St After Worthington Rd","lat":-32.0408888015,"lon":115.837449169},{"id":"11123","name":"Riseley St After Karoonda Rd","lat":-32.0386443769,"lon":115.837685295},{"id":"11124","name":"Riseley St Before Almondbury Rd","lat":-32.033524394,"lon":115.838189608},{"id":"11125","name":"Riseley St Before Leverburgh St","lat":-32.0313488888889,"lon":115.837818333333},{"id":"11126","name":"Riseley St After Glencoe Rd","lat":-32.0287648572,"lon":115.837142749},{"id":"11127","name":"Riseley St After Calgary St","lat":-32.0263827777778,"lon":115.837507222222},{"id":"11128","name":"Riseley St After Drew Rd","lat":-32.0238321177,"lon":115.836503005},{"id":"11129","name":"Riseley St Before Kearns Cr","lat":-32.0216896911,"lon":115.834899866},{"id":"11130","name":"Booragoon Bus Stn Stand D4","lat":-32.0358727777778,"lon":115.837209444444},{"id":"11132","name":"Booragoon Bus Stn Stand D2","lat":-32.0358466666667,"lon":115.836823888889},{"id":"11133","name":"Booragoon Bus Stn Stand D1","lat":-32.0358344444444,"lon":115.836642222222},{"id":"11136","name":"Booragoon Bus Stn Stand B2","lat":-32.036055,"lon":115.837167777778},{"id":"11137","name":"Booragoon Bus Stn Stand B1","lat":-32.0360711111111,"lon":115.837440555556},{"id":"11138","name":"Booragoon Bus Stn Stand C4","lat":-32.0359972222223,"lon":115.837286111111},{"id":"11139","name":"Booragoon Bus Stn Stand C3","lat":-32.0359888888889,"lon":115.837118888889},{"id":"11140","name":"Booragoon Bus Stn Stand C2","lat":-32.0359716666667,"lon":115.836823333333},{"id":"11141","name":"Booragoon Bus Stn Stand C1","lat":-32.0359583333333,"lon":115.836603333333},{"id":"11142","name":"Queen St After Adelaide St","lat":-32.0529155555556,"lon":115.747506666667},{"id":"11147","name":"Queen Victoria St After James St","lat":-32.0488933333334,"lon":115.750512222222},{"id":"11148","name":"Carrington St Fremantle Cemetery","lat":-32.0520004643,"lon":115.77941115},{"id":"11150","name":"Stockdale Rd After South St","lat":-32.0622188888889,"lon":115.788217222222},{"id":"11151","name":"Stockdale Rd Before South St","lat":-32.0625661111111,"lon":115.788309444444},{"id":"11152","name":"Peel Rd Before Jarvis St","lat":-32.0602057792,"lon":115.789370102},{"id":"11153","name":"Peel Rd Before Mcneece Pl","lat":-32.0601786843,"lon":115.791875484},{"id":"11154","name":"Peel Rd Before Adams St","lat":-32.0601905555556,"lon":115.801603888889},{"id":"11155","name":"Peel Rd Before Adams St","lat":-32.0602705339,"lon":115.802083009},{"id":"11156","name":"Peel Rd Before Mcneece Pl","lat":-32.0602648255,"lon":115.792435191},{"id":"11157","name":"Peel Rd Before Stockdale Rd","lat":-32.0602983333333,"lon":115.788678333333},{"id":"11159","name":"Wray Av Before Solomon St","lat":-32.062578799,"lon":115.758771513},{"id":"11161","name":"Cordelia Av After Regan St","lat":-32.0840455555556,"lon":115.803591111111},{"id":"11163","name":"Cordelia Av After Coolbellup Av","lat":-32.0833361111111,"lon":115.807991111111},{"id":"11164","name":"Cordelia Av Before Tybalt Pl","lat":-32.0833132712,"lon":115.810585465},{"id":"11166","name":"Cordelia Av After Cordelia Av","lat":-32.0835657561,"lon":115.810005115},{"id":"11167","name":"Cordelia Av Before Coolbellup Av","lat":-32.0834394444444,"lon":115.807841666667},{"id":"11168","name":"Cordelia Av After Prospero Cr","lat":-32.0843044198,"lon":115.803471728},{"id":"11176","name":"Karel Av Before Farrington Rd","lat":-32.0807279912,"lon":115.865340076},{"id":"11177","name":"Karel Av Before Terry Rd","lat":-32.077187133,"lon":115.865627263},{"id":"11178","name":"Karel Av After Westminster Rd","lat":-32.0730464898,"lon":115.866464514},{"id":"11180","name":"Karel Av Before Hurley Wy","lat":-32.0628844444444,"lon":115.871918333333},{"id":"11181","name":"Karel Av Before Keith Rd","lat":-32.0456881103,"lon":115.872930651},{"id":"11183","name":"Karel Av Before Apsley Rd","lat":-32.0457456601,"lon":115.873218798},{"id":"11184","name":"Karel Av After Bernera Dr","lat":-32.0626572222222,"lon":115.872237222222},{"id":"11185","name":"Karel Av After Gracechurch Cr","lat":-32.0691982311,"lon":115.869197551},{"id":"11186","name":"Karel Av After Beasley Rd","lat":-32.0732433333333,"lon":115.866612222222},{"id":"11187","name":"Karel Av After Terry Rd","lat":-32.0774234082,"lon":115.865880079},{"id":"11188","name":"Karel Av After Farrington Rd","lat":-32.0810594444445,"lon":115.865538888889},{"id":"11189","name":"Parry Av After Bull Creek Dr","lat":-32.0564523508,"lon":115.857364796},{"id":"11190","name":"Parry Av After Sanderson Rd","lat":-32.055925,"lon":115.860913333333},{"id":"11191","name":"Parry Av After Mcwhae Pl","lat":-32.0563196694,"lon":115.86338932},{"id":"11193","name":"Parry Av After Wheatley Dr","lat":-32.0565588888889,"lon":115.867323333333},{"id":"11194","name":"Parry Av After Lefroy Rd","lat":-32.0564946604,"lon":115.870361539},{"id":"11195","name":"Burrendah Bvd After Karel Av","lat":-32.0563816666667,"lon":115.873926111111},{"id":"11196","name":"Burrendah Bvd After The Parapet","lat":-32.0554316666667,"lon":115.875770555556},{"id":"11197","name":"Burrendah Bvd After Burren Gate","lat":-32.0551888888889,"lon":115.879012222222},{"id":"11198","name":"Burrendah Bvd Before Pinetree Gully Rd","lat":-32.0573455555556,"lon":115.881878888889},{"id":"11199","name":"Burrendah Bvd - Southlands Shopping Ctr","lat":-32.0563911111111,"lon":115.881073333333},{"id":"11200","name":"Burrendah Bvd Before Corsair Dr","lat":-32.0610227777778,"lon":115.883512222222},{"id":"11201","name":"Burrendah Bvd Before Helsall Ct","lat":-32.0628375002,"lon":115.885919803},{"id":"11202","name":"Burrendah Bvd Before Vahland Av","lat":-32.0637461111111,"lon":115.88881},{"id":"11203","name":"Burrendah Bvd After Vahland Av","lat":-32.0639283333333,"lon":115.888752777778},{"id":"11204","name":"Burrendah Bvd After Trident Tce","lat":-32.0629317434,"lon":115.885720439},{"id":"11205","name":"Burrendah Bvd After Kennon St","lat":-32.0609666666667,"lon":115.883200555556},{"id":"11206","name":"Burrendah Bvd After Pinetree Gully Rd","lat":-32.0572633333333,"lon":115.881582222222},{"id":"11207","name":"Burrendah Bvd - Southlands Shopping Ctr","lat":-32.0562361111111,"lon":115.880688333333},{"id":"11208","name":"Burrendah Bvd Before Burren Gate","lat":-32.0553738888889,"lon":115.878480555556},{"id":"11209","name":"Burrendah Bvd Before Karel Av","lat":-32.0566355555555,"lon":115.873527777778},{"id":"11210","name":"Parry Av After Nicholls Cr","lat":-32.0566483333333,"lon":115.870744444444},{"id":"11211","name":"Parry Av Before Wheatley Dr","lat":-32.0567558919,"lon":115.866643928},{"id":"11212","name":"Parry Av Before Harcourt Pl","lat":-32.0562316666667,"lon":115.862419444444},{"id":"11213","name":"Parry Av Before Sanderson Rd","lat":-32.0560956625,"lon":115.860708761},{"id":"11214","name":"Parry Av After Benningfield Rd","lat":-32.0565425494,"lon":115.857560852},{"id":"11216","name":"Vahland Av After Burrendah Bvd","lat":-32.0611855033,"lon":115.889422451},{"id":"11217","name":"Vahland Av Before Panamuna Dr","lat":-32.0570816666666,"lon":115.889390555556},{"id":"11218","name":"Vahland Av After Silvertop Tce","lat":-32.0516787509,"lon":115.890134723},{"id":"11219","name":"Vahland Av After Apsley Rd","lat":-32.0471238888889,"lon":115.892979444444},{"id":"11220","name":"Vahland Av Before Querrin Av","lat":-32.0446644444444,"lon":115.893246666667},{"id":"11221","name":"Vahland Av Before Kielman Rd","lat":-32.040788291,"lon":115.893264375},{"id":"11222","name":"Vahland Av After Swanson St","lat":-32.039515,"lon":115.893263333333},{"id":"11224","name":"Vahland Av After Betula St","lat":-32.0360003341,"lon":115.893166701},{"id":"11225","name":"Vahland Av Before Tribute St","lat":-32.0316427777778,"lon":115.893040555556},{"id":"11228","name":"Vahland Av Before Kareela Rd","lat":-32.0311472222222,"lon":115.893199444444},{"id":"11229","name":"Vahland Av After Corinthian Rd","lat":-32.0352113565,"lon":115.893358103},{"id":"11231","name":"Vahland Av After High Rd","lat":-32.0399272222222,"lon":115.893516111111},{"id":"11232","name":"Vahland Av After Kielman Rd","lat":-32.0411408117,"lon":115.893499657},{"id":"11233","name":"Vahland Av Before Lynton Rd","lat":-32.0448013164,"lon":115.893486033},{"id":"11234","name":"Vahland Av After Lynton Rd","lat":-32.0473177777778,"lon":115.893156666667},{"id":"11235","name":"Vahland Av Before Silvertop Tce","lat":-32.0519329431,"lon":115.890265962},{"id":"11236","name":"Vahland Av Before Turret Rd","lat":-32.0573172222222,"lon":115.889648888889},{"id":"11237","name":"Vahland Av After Bellona Pl","lat":-32.0612590789,"lon":115.889691641},{"id":"11239","name":"Webber St After Arkwell St","lat":-32.0504727777778,"lon":115.794872777778},{"id":"11242","name":"Centenary Av After Leach Hwy","lat":-32.0204383333333,"lon":115.901132777778},{"id":"11243","name":"Centenary Av After Manning Rd","lat":-32.015525,"lon":115.89948},{"id":"11244","name":"Centenary Av Before Leach Hwy","lat":-32.0204633333333,"lon":115.901402777778},{"id":"11245","name":"Lawson St After Farnham St","lat":-32.0120227777778,"lon":115.90046},{"id":"11246","name":"Lawson St Before Beveridge St","lat":-32.0103236272,"lon":115.900548545},{"id":"11248","name":"Curtin University Bus Stn Stand 8","lat":-32.0054899605,"lon":115.897202089},{"id":"11249","name":"Adie Ct After Hayman Rd","lat":-32.0037372999,"lon":115.897691153},{"id":"11250","name":"Adie Ct Swan Cottage Homes","lat":-32.0030294444445,"lon":115.898911111111},{"id":"11251","name":"Adie Ct After Jarrah Rd","lat":-32.0022061111111,"lon":115.900039444444},{"id":"11252","name":"Adie Ct Swancare","lat":-32.0031322222222,"lon":115.898966111111},